[{"id":"1610367","name":"Nonopapa, Niihau Island","lat":21.87,"lng":-160.235},{"id":"1611347","name":"Port Allen, Hanapepe Bay","lat":21.9033,"lng":-159.592},{"id":"1611400","name":"NAWILIWILI","lat":21.9544,"lng":-159.3561},{"id":"1611401","name":"Waimea Bay","lat":21.9567,"lng":-159.673},{"id":"1611443","name":"Hanamaulu Bay","lat":21.995,"lng":-159.335},{"id":"1611683","name":"Hanalei Bay","lat":22.215,"lng":-159.502},{"id":"1612301","name":"Hanauma Bay","lat":21.275,"lng":-157.697},{"id":"1612340","name":"HONOLULU","lat":21.30333,"lng":-157.86453},{"id":"1612366","name":"Pearl Harbor Entrance, Bishop Point","lat":21.33,"lng":-157.967},{"id":"1612376","name":"Waimanalo","lat":21.335,"lng":-157.693},{"id":"1612401","name":"Ford Island, Pearl Harbor","lat":21.3675,"lng":-157.9639},{"id":"1612404","name":"Pearl Harbor, Ford Island Ferry","lat":21.3683,"lng":-157.94},{"id":"1612480","name":"MOKU O LOE","lat":21.43306,"lng":-157.79},{"id":"1612482","name":"Waianae","lat":21.445,"lng":-158.192},{"id":"1612668","name":"Haleiwa, Waialua Bay","lat":21.5983,"lng":-158.108},{"id":"1613077","name":"Kamalo Harbor","lat":21.0483,"lng":-156.877},{"id":"1613155","name":"Pukoo Harbor","lat":21.0717,"lng":-156.8},{"id":"1613198","name":"Kaunakakai","lat":21.085,"lng":-157.032},{"id":"1613226","name":"Kolo","lat":21.0933,"lng":-157.197},{"id":"1614465","name":"Kaumalapau, Lanai Island","lat":20.79,"lng":-156.995},{"id":"1615202","name":"Makena","lat":20.6567,"lng":-156.445},{"id":"1615395","name":"Hana","lat":20.7617,"lng":-155.987},{"id":"1615680","name":"KAHULUI","lat":20.89494,"lng":-156.469},{"id":"1616696","name":"Kuheia Bay","lat":20.595,"lng":-156.607},{"id":"1617277","name":"Mahukona","lat":20.1867,"lng":-155.903},{"id":"1617433","name":"Kawaihae","lat":20.0366,"lng":-155.8294},{"id":"1617760","name":"HILO","lat":19.73028,"lng":-155.05556},{"id":"1617846","name":"Kailua Kona","lat":19.6433,"lng":-156},{"id":"1618021","name":"Napoopoo, Kealakekua Bay","lat":19.4767,"lng":-155.922},{"id":"1618578","name":"Honuapo","lat":19.0883,"lng":-155.553},{"id":"1619222","name":"East Island, French Frigate Shoals","lat":23.7833,"lng":-166.20799},{"id":"1619645","name":"Laysan Island","lat":25.7667,"lng":-171.75},{"id":"1633227","name":"Tanapag Harbor, Saipan Island","lat":15.2267,"lng":145.737},{"id":"1778000","name":"APIA (Observatory), Upolu Island","lat":-13.8083,"lng":-171.767},{"id":"8410140","name":"EASTPORT","lat":44.90461,"lng":-66.98289},{"id":"8410714","name":"Coffins Point","lat":44.87,"lng":-67.1083},{"id":"8410715","name":"Garnet Point, Pennamquan River","lat":44.9233,"lng":-67.13},{"id":"8410834","name":"Pettegrove Point, Dochet Island","lat":45.12844,"lng":-67.14467},{"id":"8410864","name":"Gravelly Point, Whiting Bay","lat":44.8233,"lng":-67.1517},{"id":"8410875","name":"Birch Islands","lat":44.875,"lng":-67.1583},{"id":"8411060","name":"Cutler, Little River","lat":44.6567,"lng":-67.21},{"id":"8411250","name":"Cutler, Naval Radio Station","lat":44.6417,"lng":-67.2967},{"id":"8411411","name":"Stone Island, Machias Bay","lat":44.6033,"lng":-67.3683},{"id":"8411467","name":"Machiasport, Machias River","lat":44.6983,"lng":-67.3933},{"id":"8411696","name":"Shoppee Point, Englishman Bay","lat":44.615,"lng":-67.4967},{"id":"8411801","name":"Steele Harbor Island","lat":44.4933,"lng":-67.5433},{"id":"8412568","name":"Green Island, Petit Manan Bar","lat":44.3717,"lng":-67.87},{"id":"8412581","name":"Millbridge, Narraguagus River, Maine","lat":44.54,"lng":-67.875},{"id":"8412932","name":"Prospect Harbor","lat":44.4,"lng":-68.0217},{"id":"8413079","name":"Winter Harbor, Frenchman Bay","lat":44.3883,"lng":-68.0867},{"id":"8413320","name":"BAR HARBOR","lat":44.39219,"lng":-68.20428},{"id":"8413564","name":"Southwest Harbor","lat":44.275,"lng":-68.3133},{"id":"8413651","name":"Bass Harbor","lat":44.2417,"lng":-68.3533},{"id":"8413801","name":"Ellsworth, Union River","lat":44.535,"lng":-68.4217},{"id":"8413825","name":"Mackerel Cove, Swans Island","lat":44.17,"lng":-68.435},{"id":"8413857","name":"Burnt Coat Harbor, Swans Island","lat":44.145,"lng":-68.45},{"id":"8414112","name":"Blue Hill Harbor","lat":44.4083,"lng":-68.5633},{"id":"8414168","name":"Center Harbor","lat":44.2633,"lng":-68.5867},{"id":"8414249","name":"Oceanville, Deer Isle","lat":44.19231,"lng":-68.62093},{"id":"8414288","name":"Isle Au Haut","lat":44.0733,"lng":-68.6367},{"id":"8414348","name":"Stonington, Deer Isle","lat":44.1533,"lng":-68.6617},{"id":"8414424","name":"Little Deer Isle","lat":44.2917,"lng":-68.6933},{"id":"8414581","name":"Gross Point, Eastern Channel","lat":44.5367,"lng":-68.7583},{"id":"8414612","name":"Bangor","lat":44.785,"lng":-68.7667},{"id":"8414672","name":"Castine","lat":44.3867,"lng":-68.7967},{"id":"8414684","name":"Bucksport","lat":44.5717,"lng":-68.8017},{"id":"8414692","name":"Sandy Point","lat":44.505,"lng":-68.805},{"id":"8414721","name":"Fort Point, Penobscot River","lat":44.4717,"lng":-68.8133},{"id":"8414776","name":"Vinalhaven, Vinalhaven Island","lat":44.0433,"lng":-68.84},{"id":"8414781","name":"Winterport","lat":44.6367,"lng":-68.8417},{"id":"8414856","name":"North Haven","lat":44.1267,"lng":-68.8733},{"id":"8414876","name":"Matinicus Harbor, Wheaton Island","lat":43.8617,"lng":-68.8817},{"id":"8414888","name":"Pulpit Harbor, North Haven Island","lat":44.1567,"lng":-68.8867},{"id":"8415191","name":"Belfast","lat":44.4267,"lng":-69.005},{"id":"8415490","name":"Rockland","lat":44.105,"lng":-69.1017},{"id":"8415709","name":"Thomaston","lat":44.0717,"lng":-69.1817},{"id":"8415809","name":"Tenants Harbor","lat":43.965,"lng":-69.2167},{"id":"8415867","name":"Otis Cove","lat":43.9867,"lng":-69.2367},{"id":"8415933","name":"Port Clyde","lat":43.925,"lng":-69.26},{"id":"8416028","name":"Burnt Island, Georges Islands","lat":43.8717,"lng":-69.295},{"id":"8416092","name":"Monhegan Island","lat":43.765,"lng":-69.3217},{"id":"8416141","name":"Friendship Harbor","lat":43.97,"lng":-69.3417},{"id":"8416224","name":"Waldoboro","lat":44.0933,"lng":-69.3767},{"id":"8416232","name":"Jones Neck","lat":44.015,"lng":-69.38},{"id":"8416381","name":"Muscongus Harbor, Muscongus Sound","lat":43.9667,"lng":-69.4417},{"id":"8416501","name":"New Harbor, Muscongus Bay","lat":43.875,"lng":-69.4917},{"id":"8416581","name":"Pemaquid Harbor, Johns Bay","lat":43.8767,"lng":-69.525},{"id":"8416608","name":"Newcastle","lat":44.0333,"lng":-69.5367},{"id":"8416721","name":"East Boothbay","lat":43.865,"lng":-69.5833},{"id":"8416731","name":"Walpole","lat":43.9333,"lng":-69.58},{"id":"8416796","name":"Damariscove Harbor, Damariscove Island","lat":43.7583,"lng":-69.615},{"id":"8416804","name":"Sheepscot (below rapids)","lat":44.05,"lng":-69.6183},{"id":"8416828","name":"Boothbay Harbor","lat":43.85,"lng":-69.6283},{"id":"8416908","name":"Southport, Townsend Gut","lat":43.8467,"lng":-69.6617},{"id":"8416921","name":"Wiscasset","lat":44,"lng":-69.6667},{"id":"8416928","name":"Cross River entrance","lat":43.925,"lng":-69.67},{"id":"8416961","name":"Back River","lat":43.9583,"lng":-69.6833},{"id":"8416968","name":"Isle of Springs","lat":43.86,"lng":-69.6867},{"id":"8417067","name":"Robinhood, Sasanoa River","lat":43.8533,"lng":-69.7333},{"id":"8417127","name":"Mill Point, Sasanoa River","lat":43.8867,"lng":-69.7633},{"id":"8417134","name":"Gardiner","lat":44.2333,"lng":-69.7667},{"id":"8417177","name":"Fort Popham, Hunniwell Point","lat":43.755,"lng":-69.785},{"id":"8417208","name":"Richmond","lat":44.0883,"lng":-69.7983},{"id":"8417221","name":"Phippsburg","lat":43.8183,"lng":-69.81},{"id":"8417227","name":"Bath","lat":43.925,"lng":-69.815},{"id":"8417271","name":"Sturgeon Island, Merrymeeting Bay","lat":43.9817,"lng":-69.835},{"id":"8417367","name":"Howard Point, New Meadows River","lat":43.89,"lng":-69.8833},{"id":"8417377","name":"Androscoggin River entrance","lat":43.95,"lng":-69.8883},{"id":"8417387","name":"Cundy Harbor, New Meadows River","lat":43.7883,"lng":-69.8933},{"id":"8417391","name":"Bowdoinham, Cathance River","lat":44.0083,"lng":-69.895},{"id":"8417527","name":"Brunswick, Androscoggin River","lat":43.9217,"lng":-69.9633},{"id":"8417553","name":"Wilson Cove, Middle Bay","lat":43.825,"lng":-69.9767},{"id":"8417647","name":"South Harpswell, Potts Harbor","lat":43.7383,"lng":-70.0233},{"id":"8417801","name":"South Freeport","lat":43.82,"lng":-70.1033},{"id":"8417821","name":"Cliff Island, Luckse Sound","lat":43.695,"lng":-70.11},{"id":"8417874","name":"Doyle Point","lat":43.7517,"lng":-70.14},{"id":"8417881","name":"Great Chebeague Island","lat":43.7217,"lng":-70.1417},{"id":"8417911","name":"Vaill Island","lat":43.6767,"lng":-70.155},{"id":"8417941","name":"Long Island","lat":43.69,"lng":-70.17},{"id":"8417948","name":"Prince Point","lat":43.7617,"lng":-70.1733},{"id":"8417988","name":"Great Diamond Island","lat":43.67,"lng":-70.2},{"id":"8417997","name":"Cushing Island","lat":43.645,"lng":-70.1983},{"id":"8418001","name":"Peak Island","lat":43.655,"lng":-70.2},{"id":"8418009","name":"Cow Island","lat":43.69,"lng":-70.19},{"id":"8418015","name":"Falmouth Foreside","lat":43.7317,"lng":-70.205},{"id":"8418031","name":"Portland Head Light","lat":43.6233,"lng":-70.2067},{"id":"8418137","name":"Presumpscot River Bridge","lat":43.6867,"lng":-70.2467},{"id":"8418150","name":"PORTLAND","lat":43.65806,"lng":-70.24417},{"id":"8418175","name":"Back Cove","lat":43.6767,"lng":-70.255},{"id":"8418268","name":"Fore River","lat":43.6417,"lng":-70.285},{"id":"8418445","name":"Pine Point, Scarborough River","lat":43.545,"lng":-70.3333},{"id":"8418557","name":"Old Orchard Beach","lat":43.5167,"lng":-70.3667},{"id":"8418606","name":"Camp Ellis, Saco River Entrance","lat":43.4617,"lng":-70.3817},{"id":"8418772","name":"Cape Porpoise","lat":43.3667,"lng":-70.4317},{"id":"8418828","name":"Biddeford, Saco River","lat":43.4917,"lng":-70.4467},{"id":"8418911","name":"Kennebunkport","lat":43.3583,"lng":-70.4767},{"id":"8419317","name":"Wells, Webhannet River","lat":43.32,"lng":-70.5633},{"id":"8419399","name":"Cape Neddick","lat":43.1667,"lng":-70.5933},{"id":"8419518","name":"York Harbor","lat":43.1317,"lng":-70.6417},{"id":"8419528","name":"Fort Point, York Harbor","lat":43.13,"lng":-70.6383},{"id":"8419590","name":"Seapoint, Cutts Island","lat":43.085,"lng":-70.6617},{"id":"8419688","name":"Gerrish Island","lat":43.0667,"lng":-70.6967},{"id":"8419807","name":"Kittery Point","lat":43.0817,"lng":-70.7033},{"id":"8419870","name":"Seavey Island","lat":43.07972,"lng":-70.74111},{"id":"8419997","name":"Salmon Falls River","lat":43.1917,"lng":-70.825},{"id":"8420411","name":"Dover, Cocheco River","lat":43.1983,"lng":-70.8683},{"id":"8421897","name":"Dover Point","lat":43.1217,"lng":-70.8333},{"id":"8422687","name":"Squamscott River RR. Bridge","lat":43.0533,"lng":-70.9133},{"id":"8423635","name":"Atlantic Heights","lat":43.09,"lng":-70.7633},{"id":"8423745","name":"Portsmouth","lat":43.0783,"lng":-70.7517},{"id":"8423898","name":"Fort Point","lat":43.0717,"lng":-70.7117},{"id":"8424601","name":"Jaffrey Point","lat":43.0567,"lng":-70.7133},{"id":"8427031","name":"Gosport Harbor, Isles of Shoals","lat":42.9783,"lng":-70.615},{"id":"8429489","name":"Hampton Harbor","lat":42.895,"lng":-70.8167},{"id":"8440273","name":"Salisbury Point","lat":42.8383,"lng":-70.9083},{"id":"8440369","name":"Merrimacport","lat":42.825,"lng":-70.9883},{"id":"8440452","name":"Plum Island, Merrimack River Entrance","lat":42.8167,"lng":-70.82},{"id":"8440466","name":"Newburyport","lat":42.815,"lng":-70.8733},{"id":"8440889","name":"Riverside","lat":42.76389,"lng":-71.03403},{"id":"8441241","name":"Plum Island Sound (south end)","lat":42.71014,"lng":-70.78861},{"id":"8441551","name":"Rockport","lat":42.6583,"lng":-70.615},{"id":"8441571","name":"Annisquam, Lobster Cove","lat":42.655,"lng":-70.6767},{"id":"8441771","name":"Essex","lat":42.6317,"lng":-70.7767},{"id":"8441841","name":"Gloucester Harbor","lat":42.61,"lng":-70.66},{"id":"8442417","name":"Beverly, Beverly Harbor","lat":42.54,"lng":-70.8867},{"id":"8442645","name":"Salem, Salem Harbor","lat":42.5233,"lng":-70.8767},{"id":"8443187","name":"Lynn, Lynn Harbor","lat":42.4583,"lng":-70.9433},{"id":"8443662","name":"Amelia Earhart Dam, Mystic River","lat":42.395,"lng":-71.0767},{"id":"8443725","name":"Chelsea St. Bridge, Chelsea River","lat":42.3867,"lng":-71.0233},{"id":"8443838","name":"Charlestown, Charles River entrance","lat":42.3717,"lng":-71.055},{"id":"8443970","name":"BOSTON","lat":42.35389,"lng":-71.05028},{"id":"8444012","name":"Deer Island (south end)","lat":42.3483,"lng":-70.96},{"id":"8444162","name":"Boston Light","lat":42.3283,"lng":-70.8917},{"id":"8444312","name":"Moon Head","lat":42.3083,"lng":-70.9917},{"id":"8444351","name":"Hull","lat":42.3033,"lng":-70.92},{"id":"8444488","name":"Neponset, Neponset River","lat":42.285,"lng":-71.04},{"id":"8444525","name":"Nut Island, Quincy Bay","lat":42.28,"lng":-70.9533},{"id":"8444601","name":"Nantasket Beach, Weir River","lat":42.27,"lng":-70.86},{"id":"8444662","name":"Crow Point, Hingham Harbor entrance","lat":42.2617,"lng":-70.8933},{"id":"8444762","name":"Cohasset Harbor (White Head)","lat":42.2483,"lng":-70.785},{"id":"8444775","name":"Hingham","lat":42.2467,"lng":-70.885},{"id":"8444788","name":"Weymouth Fore River Bridge","lat":42.2483,"lng":-70.9667},{"id":"8445138","name":"Scituate, Scituate Harbor","lat":42.2017,"lng":-70.7267},{"id":"8445425","name":"Damons Point, North River","lat":42.16,"lng":-70.7333},{"id":"8446009","name":"Brant Rock, Green Harbor River","lat":42.0833,"lng":-70.6467},{"id":"8446121","name":"Provincetown","lat":42.04959,"lng":-70.18216},{"id":"8446166","name":"Duxbury, Duxbury Harbor","lat":42.0383,"lng":-70.67},{"id":"8446493","name":"Plymouth","lat":41.96,"lng":-70.6617},{"id":"8446613","name":"Wellfleet","lat":41.93,"lng":-70.0417},{"id":"8447173","name":"Cape Cod Canal, Sagamore","lat":41.775,"lng":-70.535},{"id":"8447180","name":"Sandwich Marina, Cape Cod Canal, east entrance","lat":41.7717,"lng":-70.5067},{"id":"8447191","name":"Cape Cod Canal, Bournedale","lat":41.77,"lng":-70.5617},{"id":"8447241","name":"Sesuit Harbor, East Dennis","lat":41.7517,"lng":-70.155},{"id":"8447259","name":"Cape Cod Canal, Bourne Bridge","lat":41.745,"lng":-70.5933},{"id":"8447270","name":"Cape Cod Canal, RR. bridge","lat":41.7417,"lng":-70.6167},{"id":"8447277","name":"Onset Beach, Onset Bay","lat":41.7417,"lng":-70.6583},{"id":"8447281","name":"Steep Brook, Taunton River","lat":41.74,"lng":-71.1317},{"id":"8447291","name":"Pleasant Bay","lat":41.7367,"lng":-69.9817},{"id":"8447295","name":"Gray Gables","lat":41.735,"lng":-70.6233},{"id":"8447335","name":"Barnstable Harbor, Beach Point","lat":41.7217,"lng":-70.285},{"id":"8447355","name":"Monument Beach","lat":41.715,"lng":-70.6167},{"id":"8447368","name":"Great Hill","lat":41.7117,"lng":-70.715},{"id":"8447385","name":"Marion, Sippican Harbor","lat":41.705,"lng":-70.7617},{"id":"8447386","name":"Fall River, Massachusetts","lat":41.7043,"lng":-71.1641},{"id":"8447416","name":"Piney Point","lat":41.695,"lng":-70.72},{"id":"8447435","name":"Chatham Harbor, Aunt Lydias Cove","lat":41.6885,"lng":-69.9511},{"id":"8447436","name":"Georges Shoal, Texas Tower","lat":41.6883,"lng":-67.76},{"id":"8447495","name":"Saquatucket Harbor","lat":41.6683,"lng":-70.0567},{"id":"8447504","name":"South Yarmouth, Bass River","lat":41.665,"lng":-70.1833},{"id":"8447505","name":"Chatham, Stage Harbor","lat":41.6667,"lng":-69.9667},{"id":"8447506","name":"Wychmere Harbor","lat":41.665,"lng":-70.065},{"id":"8447525","name":"Dennisport","lat":41.6583,"lng":-70.115},{"id":"8447531","name":"Mattapoisett, Mattapoisett Harbor","lat":41.6567,"lng":-70.8133},{"id":"8447605","name":"Hyannis Port","lat":41.6317,"lng":-70.3},{"id":"8447636","name":"New Bedford Harbor, Marine Terminal","lat":41.6212,"lng":-70.9137},{"id":"8447675","name":"Cotuit Highlands","lat":41.6083,"lng":-70.4367},{"id":"8447685","name":"Chappaquoit Point, West Falmouth Harbor","lat":41.605,"lng":-70.6517},{"id":"8447712","name":"Clarks Point","lat":41.5933,"lng":-70.9},{"id":"8447742","name":"Poponesset Island, Poponesset Bay","lat":41.5867,"lng":-70.4633},{"id":"8447791","name":"Hix Bridge, East Branch","lat":41.57,"lng":-71.0733},{"id":"8447842","name":"Round Hill Point","lat":41.5383,"lng":-70.9283},{"id":"8447865","name":"Falmouth Heights","lat":41.545,"lng":-70.5933},{"id":"8447930","name":"OCEANOGRAPHIC INSTITUTION","lat":41.52361,"lng":-70.67111},{"id":"8447939","name":"Little Harbor","lat":41.52,"lng":-70.665},{"id":"8447941","name":"Uncatena Island (south side)","lat":41.52,"lng":-70.7083},{"id":"8447975","name":"Westport Harbor","lat":41.5083,"lng":-71.0933},{"id":"8448157","name":"VINEYARD HAVEN, VINEYARD HVN HBR","lat":41.4583,"lng":-70.6},{"id":"8448208","name":"Oak Bluffs","lat":41.4583,"lng":-70.555},{"id":"8448248","name":"Penikese Island","lat":41.45,"lng":-70.9217},{"id":"8448251","name":"Quicks Hole, North side","lat":41.4483,"lng":-70.8567},{"id":"8448325","name":"Cedar Tree Neck","lat":41.435,"lng":-70.6967},{"id":"8448376","name":"Cuttyhunk","lat":41.425,"lng":-70.9167},{"id":"8448558","name":"Edgartown","lat":41.3883,"lng":-70.5117},{"id":"8448566","name":"Great Point","lat":41.3867,"lng":-70.0467},{"id":"8448683","name":"Wasque Point, Chappaquiddick Island","lat":41.3633,"lng":-70.45},{"id":"8448725","name":"Menemsha Harbor, MA","lat":41.35444,"lng":-70.76783},{"id":"8448733","name":"Gay Head","lat":41.3533,"lng":-70.83},{"id":"8448817","name":"Muskeget Island, north side","lat":41.3367,"lng":-70.305},{"id":"8448875","name":"Martha's Vineyard GPS Buoy","lat":41.32622,"lng":-70.59033},{"id":"8448942","name":"Squibnocket Point","lat":41.3117,"lng":-70.7683},{"id":"8449062","name":"Eel Point","lat":41.2917,"lng":-70.2083},{"id":"8449130","name":"NANTUCKET","lat":41.285,"lng":-70.0967},{"id":"8449287","name":"Nomans Land","lat":41.2617,"lng":-70.8183},{"id":"8450768","name":"Sakonnet","lat":41.465,"lng":-71.1933},{"id":"8450898","name":"North End, Bay Oil pier","lat":41.6517,"lng":-71.21},{"id":"8450948","name":"Anthony Point","lat":41.6383,"lng":-71.2117},{"id":"8450954","name":"Nannaquaket Neck","lat":41.6183,"lng":-71.2033},{"id":"8451301","name":"The Glen","lat":41.5583,"lng":-71.2367},{"id":"8451351","name":"Sachuest, Flint Point","lat":41.4867,"lng":-71.2383},{"id":"8451552","name":"Bristol Ferry","lat":41.6367,"lng":-71.255},{"id":"8451929","name":"Bristol, Bristol Harbor","lat":41.6683,"lng":-71.28},{"id":"8452154","name":"Bristol Highlands","lat":41.6967,"lng":-71.2933},{"id":"8452555","name":"Prudence Island, (south end)","lat":41.58,"lng":-71.3217},{"id":"8452660","name":"NEWPORT","lat":41.50433,"lng":-71.32614},{"id":"8452944","name":"Conimicut Light","lat":41.7167,"lng":-71.3433},{"id":"8453033","name":"Bay Spring, Bullock Cove","lat":41.7517,"lng":-71.3517},{"id":"8453201","name":"Castle Hill","lat":41.4633,"lng":-71.3617},{"id":"8453433","name":"Rumford, Seekonk River","lat":41.84,"lng":-71.3733},{"id":"8453465","name":"Conanicut Point","lat":41.5733,"lng":-71.3717},{"id":"8453611","name":"Pawtucket, Seekonk River","lat":41.8683,"lng":-71.38},{"id":"8453742","name":"West Jamestown, Dutch Island Harbor","lat":41.4967,"lng":-71.3867},{"id":"8453767","name":"Pawtuxet, Pawtuxet Cove","lat":41.7617,"lng":-71.3883},{"id":"8453999","name":"Beavertail Point","lat":41.4517,"lng":-71.4017},{"id":"8454000","name":"Providence, State Pier no.1","lat":41.80717,"lng":-71.40067},{"id":"8454049","name":"Quonset Point","lat":41.5868,"lng":-71.411},{"id":"8454341","name":"Watson Pier, Boston Neck","lat":41.46,"lng":-71.4283},{"id":"8454538","name":"Wickford","lat":41.5717,"lng":-71.445},{"id":"8454578","name":"East Greenwich","lat":41.665,"lng":-71.445},{"id":"8454658","name":"Narragansett Pier","lat":41.4217,"lng":-71.455},{"id":"8455083","name":"Point Judith, Harbor of Refuge","lat":41.3633,"lng":-71.49},{"id":"8455137","name":"KICKAMUIT RIVER","lat":41.7078,"lng":-71.2417},{"id":"8455189","name":"Westerly, Pawcatuck River","lat":41.3817,"lng":-71.8317},{"id":"8458022","name":"Weekapaug Point, Block Island Sound","lat":41.3283,"lng":-71.7617},{"id":"8458694","name":"Watch Hill Point","lat":41.305,"lng":-71.86},{"id":"8459338","name":"Block Island (Old Harbor)","lat":41.1733,"lng":-71.5567},{"id":"8459681","name":"Southwest Point, Block Island","lat":41.1633,"lng":-71.61},{"id":"8460751","name":"WEST MYSTIC, MYSTIC RIVER","lat":41.3433,"lng":-71.975},{"id":"8461392","name":"Norwich","lat":41.5233,"lng":-72.0783},{"id":"8461467","name":"Yale boathouse","lat":41.43,"lng":-72.0933},{"id":"8461490","name":"NEW LONDON, State Pier","lat":41.37167,"lng":-72.09556},{"id":"8461925","name":"Niantic, Niantic River","lat":41.325,"lng":-72.1867},{"id":"8462723","name":"Saybrook Jetty","lat":41.2633,"lng":-72.3433},{"id":"8462752","name":"Saybrook Point","lat":41.2833,"lng":-72.35},{"id":"8462764","name":"Lyme, highway bridge","lat":41.3217,"lng":-72.35},{"id":"8462925","name":"Essex","lat":41.3483,"lng":-72.385},{"id":"8463155","name":"Hadlyme","lat":41.42,"lng":-72.4283},{"id":"8463348","name":"Tylerville","lat":41.4517,"lng":-72.465},{"id":"8463409","name":"Westbrook, Duck Island Roads","lat":41.2733,"lng":-72.475},{"id":"8463582","name":"Haddam","lat":41.4817,"lng":-72.5067},{"id":"8463701","name":"Clinton Harbor","lat":41.2683,"lng":-72.5317},{"id":"8463827","name":"Maromas","lat":41.5417,"lng":-72.5517},{"id":"8463836","name":"Higganum Creek","lat":41.5033,"lng":-72.5533},{"id":"8464041","name":"Madison","lat":41.27,"lng":-72.59},{"id":"8464255","name":"Rocky Hill","lat":41.6633,"lng":-72.63},{"id":"8464336","name":"Middletown","lat":41.56,"lng":-72.645},{"id":"8464418","name":"South Hartford","lat":41.755,"lng":-72.6583},{"id":"8464445","name":"Guilford Harbor","lat":41.2717,"lng":-72.6667},{"id":"8464464","name":"Hartford","lat":41.77,"lng":-72.6683},{"id":"8464687","name":"Sachem Head","lat":41.245,"lng":-72.7083},{"id":"8465233","name":"Branford, Branford River","lat":41.2617,"lng":-72.8183},{"id":"8465692","name":"Lighthouse Point, New Haven Harbor","lat":41.2517,"lng":-72.905},{"id":"8465705","name":"New Haven Harbor, New Haven Reach","lat":41.2833,"lng":-72.9083},{"id":"8466375","name":"Gulf Beach","lat":41.205,"lng":-73.0417},{"id":"8466442","name":"Milford Harbor","lat":41.2183,"lng":-73.055},{"id":"8466573","name":"Shelton","lat":41.3017,"lng":-73.0717},{"id":"8466664","name":"Long Hill","lat":41.275,"lng":-73.0883},{"id":"8466791","name":"Sniffens Point","lat":41.1867,"lng":-73.1133},{"id":"8466797","name":"Stratford, I-95 bridge","lat":41.2033,"lng":-73.1117},{"id":"8467150","name":"BRIDGEPORT","lat":41.17582,"lng":-73.18397},{"id":"8467373","name":"Black Rock Harbor","lat":41.1567,"lng":-73.2133},{"id":"8467726","name":"Southport, Southport Harbor","lat":41.1333,"lng":-73.2833},{"id":"8468191","name":"SAUGATUCK, SAUGATUCK RIVER","lat":41.12,"lng":-73.3683},{"id":"8468448","name":"South Norwalk","lat":41.0967,"lng":-73.415},{"id":"8468609","name":"Rowayton, Fivemile River","lat":41.065,"lng":-73.445},{"id":"8468799","name":"Long Neck Point","lat":41.0383,"lng":-73.48},{"id":"8469198","name":"Stamford","lat":41.0383,"lng":-73.5467},{"id":"8469549","name":"Cos Cob Harbor","lat":41.0167,"lng":-73.5967},{"id":"8510448","name":"Lake Montauk","lat":41.0733,"lng":-71.935},{"id":"8510502","name":"Montauk Harbor entrance","lat":41.075,"lng":-71.9367},{"id":"8510560","name":"Montauk, Fort Pond Bay","lat":41.04833,"lng":-71.95944},{"id":"8510719","name":"Silver Eel Pond, Fishers Island, N.Y.","lat":41.2567,"lng":-72.03},{"id":"8510884","name":"Little Gull Island","lat":41.2067,"lng":-72.1017},{"id":"8511171","name":"Threemile Harbor entrance, Gardiners Bay","lat":41.035,"lng":-72.19},{"id":"8511236","name":"Plum Gut Harbor, Plum Island","lat":41.1717,"lng":-72.205},{"id":"8511629","name":"Sag Harbor","lat":41.0033,"lng":-72.2967},{"id":"8511671","name":"Orient","lat":41.1367,"lng":-72.3067},{"id":"8511779","name":"Noyack Bay","lat":40.995,"lng":-72.3317},{"id":"8511907","name":"Greenport","lat":41.101,"lng":-72.36117},{"id":"8512053","name":"Hashamomuck Beach","lat":41.095,"lng":-72.3983},{"id":"8512114","name":"Southold","lat":41.06,"lng":-72.4133},{"id":"8512328","name":"New Suffolk","lat":40.9917,"lng":-72.4717},{"id":"8512354","name":"Shinnecock Inlet (ocean)","lat":40.8367,"lng":-72.48},{"id":"8512451","name":"Ponquoque Point","lat":40.85,"lng":-72.5033},{"id":"8512668","name":"Mattituck Inlet","lat":41.015,"lng":-72.5617},{"id":"8512671","name":"Shinnecock Bay entrance","lat":40.82,"lng":-72.5617},{"id":"8512735","name":"South Jamesport","lat":40.935,"lng":-72.5817},{"id":"8512769","name":"Shinnecock Yacht Club, Penniman Creek","lat":40.81856,"lng":-72.58661},{"id":"8512987","name":"Northville","lat":40.9817,"lng":-72.645},{"id":"8513388","name":"Moriches Coast Guard Station","lat":40.7867,"lng":-72.75},{"id":"8513398","name":"Moriches Inlet","lat":40.76442,"lng":-72.75597},{"id":"8513825","name":"Smith Point Bridge, Narrow Bay","lat":40.7383,"lng":-72.8683},{"id":"8514322","name":"Patchogue","lat":40.75,"lng":-73},{"id":"8514421","name":"Mount Sinai Harbor","lat":40.9633,"lng":-73.04},{"id":"8514422","name":"Cedar Beach","lat":40.965,"lng":-73.0433},{"id":"8514560","name":"Port Jefferson","lat":40.95,"lng":-73.0767},{"id":"8514594","name":"Port Jefferson Harbor entrance","lat":40.9717,"lng":-73.0917},{"id":"8514779","name":"Seaview Ferry Dock","lat":40.64925,"lng":-73.15061},{"id":"8514783","name":"Great River, Connetquot River","lat":40.7233,"lng":-73.1517},{"id":"8514961","name":"West Fire Island","lat":40.6567,"lng":-73.205},{"id":"8515014","name":"Fire Island Light","lat":40.635,"lng":-73.22},{"id":"8515102","name":"Bay Shore, Watchogue Creek Entrance","lat":40.7167,"lng":-73.24},{"id":"8515186","name":"Fire Island Coast Guard Station","lat":40.6267,"lng":-73.26},{"id":"8515228","name":"Democrat Point, Fire Island Inlet","lat":40.6333,"lng":-73.2933},{"id":"8515336","name":"Oak Beach","lat":40.64,"lng":-73.295},{"id":"8515421","name":"Babylon","lat":40.685,"lng":-73.315},{"id":"8515586","name":"Northport, Northport Bay","lat":40.9,"lng":-73.3533},{"id":"8515764","name":"Gilgo Heading","lat":40.62,"lng":-73.395},{"id":"8515786","name":"Eatons Neck Point","lat":40.9533,"lng":-73.4},{"id":"8515864","name":"Amityville","lat":40.655,"lng":-73.4183},{"id":"8515921","name":"Lloyd Harbor, Huntington Bay","lat":40.91,"lng":-73.4317},{"id":"8516055","name":"Biltmore Shores, South Oyster Bay","lat":40.6667,"lng":-73.4683},{"id":"8516061","name":"Cold Spring Harbor","lat":40.8733,"lng":-73.47},{"id":"8516155","name":"Green Island","lat":40.6233,"lng":-73.5017},{"id":"8516201","name":"Oyster Bay Harbor","lat":40.8667,"lng":-73.5167},{"id":"8516211","name":"Bellmore, Bellmore Creek","lat":40.6633,"lng":-73.52},{"id":"8516221","name":"Cuba Island","lat":40.62,"lng":-73.5233},{"id":"8516225","name":"Deep Creek Meadow","lat":40.6033,"lng":-73.525},{"id":"8516299","name":"Bayville Bridge","lat":40.9033,"lng":-73.55},{"id":"8516315","name":"Neds Creek","lat":40.6233,"lng":-73.555},{"id":"8516385","name":"Jones Inlet (Point Lookout)","lat":40.5867,"lng":-73.5783},{"id":"8516402","name":"Point Lookout (marina), Jones Inlet","lat":40.59389,"lng":-73.58397},{"id":"8516411","name":"Freeport, Baldwin Bay","lat":40.6333,"lng":-73.5867},{"id":"8516501","name":"Baldwin, Parsonage Cove, Hempstead Bay","lat":40.6333,"lng":-73.6167},{"id":"8516601","name":"Long Beach (Inside)","lat":40.6,"lng":-73.65},{"id":"8516607","name":"Harry Tappen Marina, Hempstead Harbor","lat":40.83461,"lng":-73.65242},{"id":"8516614","name":"Glen Cove, Hempstead Harbor","lat":40.8633,"lng":-73.655},{"id":"8516661","name":"Bay Park, Hewlett Bay","lat":40.63,"lng":-73.67},{"id":"8516663","name":"Long Beach, Bridgewater Yacht Club, New York","lat":40.59633,"lng":-73.65508},{"id":"8516745","name":"Woodmere, Brosewere Bay","lat":40.62,"lng":-73.6983},{"id":"8516761","name":"Port Washington, Manhasset Bay","lat":40.8317,"lng":-73.7033},{"id":"8516881","name":"East Rockaway Inlet, Atlantic Beach","lat":40.595,"lng":-73.7433},{"id":"8516891","name":"Norton Point, Head of Bay","lat":40.635,"lng":-73.7467},{"id":"8516925","name":"Motts Basin","lat":40.6167,"lng":-73.7583},{"id":"8516945","name":"Kings Point","lat":40.8103,"lng":-73.7649},{"id":"8516990","name":"Willets Point","lat":40.7933,"lng":-73.7817},{"id":"8516999","name":"J.F.K. International Airport","lat":40.6233,"lng":-73.7833},{"id":"8517125","name":"Whitestone","lat":40.7983,"lng":-73.8133},{"id":"8517137","name":"Beach Channel (bridge)","lat":40.5883,"lng":-73.82},{"id":"8517201","name":"North Channel Bridge, Grassy Bay","lat":40.645,"lng":-73.8367},{"id":"8517251","name":"Worlds Fair Marina, Flushing Bay","lat":40.761,"lng":-73.85036},{"id":"8517276","name":"College Point, Flushing Bay","lat":40.7833,"lng":-73.8567},{"id":"8517381","name":"Canarsie","lat":40.63,"lng":-73.885},{"id":"8517394","name":"Barren Island, Rockaway Inlet","lat":40.5783,"lng":-73.8883},{"id":"8517401","name":"Hell Gate, Wards Island","lat":40.7867,"lng":-73.9217},{"id":"8517519","name":"Mill Basin","lat":40.6083,"lng":-73.9217},{"id":"8517531","name":"Plumb Beach Channel","lat":40.585,"lng":-73.925},{"id":"8517673","name":"Hunters Point, Newtown Creek","lat":40.74,"lng":-73.9617},{"id":"8517732","name":"Wallabout Bay, Brooklyn Navy Yard","lat":40.7067,"lng":-73.975},{"id":"8517741","name":"Coney Island","lat":40.57,"lng":-73.9833},{"id":"8517756","name":"Kingsborough, Sheepshead Bay","lat":40.5812,"lng":-73.9338},{"id":"8517811","name":"Norton Point, Gravesend Bay","lat":40.59,"lng":-73.9983},{"id":"8517847","name":"Brooklyn Bridge","lat":40.7033,"lng":-73.995},{"id":"8517921","name":"Gowanus Bay","lat":40.665,"lng":-74.0133},{"id":"8517942","name":"Fort Hamilton, The Narrows","lat":40.6083,"lng":-74.035},{"id":"8518091","name":"Rye Beach","lat":40.9617,"lng":-73.6717},{"id":"8518490","name":"New Rochelle","lat":40.8933,"lng":-73.7817},{"id":"8518526","name":"Throgs Neck, Fort Schuyler","lat":40.805,"lng":-73.795},{"id":"8518621","name":"Hunts Point","lat":40.8,"lng":-73.8733},{"id":"8518635","name":"North Brother Island","lat":40.7983,"lng":-73.8983},{"id":"8518639","name":"Port Morris (Stony Point)","lat":40.8017,"lng":-73.9067},{"id":"8518643","name":"Harlem River, Randalls Island","lat":40.8,"lng":-73.9283},{"id":"8518668","name":"Horns Hook, East 90th Street","lat":40.7767,"lng":-73.9417},{"id":"8518687","name":"Queensboro Bridge","lat":40.7583,"lng":-73.9583},{"id":"8518695","name":"East 41st Street, New York City","lat":40.7467,"lng":-73.9683},{"id":"8518699","name":"Williamsburg Bridge","lat":40.7117,"lng":-73.9683},{"id":"8518750","name":"NEW YORK (The Battery)","lat":40.70055,"lng":-74.01417},{"id":"8518902","name":"Dyckman Street, Ferry Slip","lat":40.8683,"lng":-73.9333},{"id":"8518903","name":"Spuyten Duyvil Creek ent., N.Y.","lat":40.8783,"lng":-73.925},{"id":"8518905","name":"Riverdale, N.Y.","lat":40.9033,"lng":-73.9167},{"id":"8518919","name":"Tarrytown","lat":41.0783,"lng":-73.87},{"id":"8518924","name":"Haverstraw","lat":41.2183,"lng":-73.9633},{"id":"8518934","name":"Beacon, Flushkill","lat":41.5,"lng":-73.9833},{"id":"8518935","name":"Newburgh","lat":41.5,"lng":-74.0067},{"id":"8518939","name":"New Hamburg","lat":41.5833,"lng":-73.95},{"id":"8518945","name":"Poughkeepsie","lat":41.7,"lng":-73.9333},{"id":"8518949","name":"Peekskill","lat":41.2883,"lng":-73.9317},{"id":"8518951","name":"Hyde Park","lat":41.7833,"lng":-73.95},{"id":"8518962","name":"TURKEY POINT, HUDSON RIVER","lat":42.0139,"lng":-73.9392},{"id":"8518964","name":"Tivoli","lat":42.0583,"lng":-73.9167},{"id":"8518974","name":"Hudson","lat":42.25,"lng":-73.8},{"id":"8518979","name":"Coxsackie, Hudson River","lat":42.35264,"lng":-73.79486},{"id":"8518989","name":"Castleton","lat":42.5333,"lng":-73.7667},{"id":"8518993","name":"Kingston","lat":41.9183,"lng":-73.9833},{"id":"8518995","name":"ALBANY","lat":42.65,"lng":-73.7467},{"id":"8519050","name":"USCG Station NY","lat":40.612,"lng":-74.05986},{"id":"8519112","name":"St. George, Staten Island","lat":40.6433,"lng":-74.0733},{"id":"8519200","name":"Port Ivory, Howland Hook, N.Y.","lat":40.645,"lng":-74.18},{"id":"8519436","name":"Great Kills Harbor","lat":40.5433,"lng":-74.14},{"id":"8519483","name":"Bayonne Bridge, Bergen Point","lat":40.63911,"lng":-74.14631},{"id":"8519726","name":"Princes Bay","lat":40.5117,"lng":-74.2},{"id":"8519789","name":"Rossville, N.Y.","lat":40.5567,"lng":-74.2233},{"id":"8530095","name":"Alpine, N.J.","lat":40.945,"lng":-73.9183},{"id":"8530186","name":"New Millford","lat":40.935,"lng":-74.03},{"id":"8530278","name":"Hackensack","lat":40.88,"lng":-74.04},{"id":"8530398","name":"Ridgefield Park","lat":40.85,"lng":-74.03},{"id":"8530403","name":"East Rutherford","lat":40.8467,"lng":-74.12},{"id":"8530505","name":"Edgewater, N.J.","lat":40.8133,"lng":-73.9783},{"id":"8530528","name":"Carlstadt, Garretts Reach","lat":40.8067,"lng":-74.06},{"id":"8530531","name":"North Secaucus, Garretts Reach","lat":40.805,"lng":-74.0533},{"id":"8530586","name":"Fish Creek, Berrys Creek","lat":40.7933,"lng":-74.0917},{"id":"8530591","name":"Belleville","lat":40.7867,"lng":-74.1467},{"id":"8530645","name":"Weehawken, Union City, N.J.","lat":40.765,"lng":-74.0183},{"id":"8530696","name":"Amtrak RR. swing bridge","lat":40.7517,"lng":-74.0967},{"id":"8530743","name":"Point No Point","lat":40.7317,"lng":-74.1167},{"id":"8530772","name":"Kearny Point","lat":40.7283,"lng":-74.1033},{"id":"8530882","name":"Port Elizabeth","lat":40.6733,"lng":-74.14},{"id":"8530884","name":"Port Newark Terminal","lat":40.69,"lng":-74.1333},{"id":"8530985","name":"Constable Hook","lat":40.655,"lng":-74.085},{"id":"8531077","name":"Rahway River, RR. Bridge","lat":40.5983,"lng":-74.2317},{"id":"8531095","name":"Carteret","lat":40.5867,"lng":-74.21},{"id":"8531142","name":"Port Reading, Arthur Kill","lat":40.555,"lng":-74.245},{"id":"8531156","name":"Woodbridge Creek, 0.8 n.mi. above entrance","lat":40.545,"lng":-74.265},{"id":"8531223","name":"Cheesequake Creek, Garden State Parkway","lat":40.4533,"lng":-74.2733},{"id":"8531232","name":"South Amboy","lat":40.4917,"lng":-74.2817},{"id":"8531262","name":"Keasbey","lat":40.5083,"lng":-74.3117},{"id":"8531369","name":"Old Bridge, South River","lat":40.4167,"lng":-74.3633},{"id":"8531390","name":"Sayreville","lat":40.4783,"lng":-74.3567},{"id":"8531463","name":"New Brunswick","lat":40.4883,"lng":-74.435},{"id":"8531526","name":"Matawan Creek, Route 35 bridge","lat":40.4333,"lng":-74.2183},{"id":"8531545","name":"Keyport","lat":40.44,"lng":-74.1983},{"id":"8531592","name":"Waackaack Creek","lat":40.4483,"lng":-74.1433},{"id":"8531662","name":"Atlantic Highlands","lat":40.4183,"lng":-74.035},{"id":"8531680","name":"Sandy Hook, Fort Hancock","lat":40.4669,"lng":-74.0094},{"id":"8531712","name":"Highlands, Route 36 bridge","lat":40.3967,"lng":-73.9817},{"id":"8531753","name":"Oceanic Bridge, Navesink River","lat":40.3767,"lng":-74.015},{"id":"8531804","name":"Sea Bright","lat":40.365,"lng":-73.975},{"id":"8531833","name":"Red Bank, Navesink River","lat":40.355,"lng":-74.065},{"id":"8531925","name":"Gooseneck Point, bridge","lat":40.3267,"lng":-74.0167},{"id":"8531942","name":"Long Branch Reach","lat":40.325,"lng":-73.9967},{"id":"8531991","name":"Long Branch (fishing pier)","lat":40.3033,"lng":-73.9767},{"id":"8532322","name":"Shark River Hills","lat":40.1917,"lng":-74.0383},{"id":"8532337","name":"Belmar, Atlantic Ocean","lat":40.185,"lng":-74.0083},{"id":"8532339","name":"Shark River Island, fixed RR. bridge","lat":40.1867,"lng":-74.0267},{"id":"8532371","name":"New Bedford","lat":40.1783,"lng":-74.0467},{"id":"8532585","name":"Brielle, Route 35 bridge","lat":40.105,"lng":-74.055},{"id":"8532591","name":"Manasquan Inlet, USCG Station","lat":40.1017,"lng":-74.035},{"id":"8532611","name":"Riviera Beach","lat":40.0967,"lng":-74.0867},{"id":"8532703","name":"Forge Pond","lat":40.065,"lng":-74.135},{"id":"8532715","name":"Beaverdam Creek entrance","lat":40.0617,"lng":-74.0617},{"id":"8532716","name":"Beaverdam Creek, inside","lat":40.0617,"lng":-74.0733},{"id":"8532721","name":"Tall Pines Camp","lat":40.0583,"lng":-74.1167},{"id":"8532786","name":"Mantoloking","lat":40.0367,"lng":-74.0533},{"id":"8532835","name":"Kettle Creek, Green Island","lat":40.0133,"lng":-74.1133},{"id":"8532885","name":"Ocean Beach","lat":39.9883,"lng":-74.0683},{"id":"8532921","name":"Silver Bay, Silver Bay Marina","lat":39.9967,"lng":-74.1483},{"id":"8533005","name":"Goose Creek entrance","lat":39.9633,"lng":-74.115},{"id":"8533051","name":"Toms River (town), Toms River","lat":39.95,"lng":-74.1983},{"id":"8533055","name":"Coates Point","lat":39.9483,"lng":-74.115},{"id":"8533071","name":"Seaside Heights, ocean","lat":39.9433,"lng":-74.035},{"id":"8533135","name":"Seaside Park","lat":39.9217,"lng":-74.0833},{"id":"8533141","name":"Barnegat Pier","lat":39.9183,"lng":-74.11},{"id":"8533185","name":"Sloop Creek","lat":39.905,"lng":-74.1333},{"id":"8533295","name":"Cedar Creek","lat":39.87,"lng":-74.155},{"id":"8533345","name":"Island Beach","lat":39.8517,"lng":-74.0883},{"id":"8533365","name":"Stouts Creek","lat":39.845,"lng":-74.1517},{"id":"8533391","name":"Forked River","lat":39.825,"lng":-74.1733},{"id":"8533465","name":"Oyster Creek","lat":39.8083,"lng":-74.1883},{"id":"8533535","name":"Island Beach, Sedge Islands","lat":39.7883,"lng":-74.0983},{"id":"8533541","name":"Waretown","lat":39.7917,"lng":-74.1817},{"id":"8533615","name":"Barnegat Inlet, USCG Station","lat":39.7617,"lng":-74.1117},{"id":"8533631","name":"High Bar","lat":39.7567,"lng":-74.1283},{"id":"8533665","name":"Double Creek","lat":39.745,"lng":-74.2017},{"id":"8533738","name":"Loveladies Harbor","lat":39.725,"lng":-74.1367},{"id":"8533780","name":"Flat Creek","lat":39.7067,"lng":-74.1917},{"id":"8533862","name":"North Beach","lat":39.675,"lng":-74.16},{"id":"8533905","name":"Mill Creek, 1 n.mi. above entrance","lat":39.665,"lng":-74.2317},{"id":"8533909","name":"Manahawkin Creek","lat":39.6667,"lng":-74.215},{"id":"8533935","name":"Manahawkin Drawbridge","lat":39.6533,"lng":-74.185},{"id":"8533941","name":"Cedar Run","lat":39.6533,"lng":-74.2567},{"id":"8533982","name":"Dinner Point Creek, upper end","lat":39.6567,"lng":-74.27},{"id":"8533987","name":"West Creek, Westecunk Creek","lat":39.6317,"lng":-74.2967},{"id":"8534002","name":"Sweetwater, Mullica River Marina","lat":39.625,"lng":-74.6417},{"id":"8534043","name":"Wading River (town), Wading River","lat":39.6183,"lng":-74.4967},{"id":"8534044","name":"Westecunk Creek entrance","lat":39.6133,"lng":-74.2633},{"id":"8534048","name":"Beach Haven Crest","lat":39.6133,"lng":-74.21},{"id":"8534049","name":"Parker Run, upper end","lat":39.6167,"lng":-74.31},{"id":"8534080","name":"Tuckerton, Tuckerton Creek","lat":39.6017,"lng":-74.3417},{"id":"8534104","name":"New Gretna, Bass River","lat":39.5917,"lng":-74.4417},{"id":"8534117","name":"Green Bank","lat":39.6117,"lng":-74.59},{"id":"8534139","name":"Tuckerton Creek entrance","lat":39.5767,"lng":-74.3317},{"id":"8534208","name":"Beach Haven Coast Guard Station","lat":39.5483,"lng":-74.2567},{"id":"8534212","name":"Chestnut Neck Boat Yard","lat":39.5483,"lng":-74.4617},{"id":"8534244","name":"Graveling Point","lat":39.54,"lng":-74.3867},{"id":"8534256","name":"Nacote Creek, U.S. Highway 9 bridge","lat":39.535,"lng":-74.4633},{"id":"8534287","name":"Little Sheepshead Creek","lat":39.5217,"lng":-74.32},{"id":"8534296","name":"Seven Island, Newmans Thorofare","lat":39.5167,"lng":-74.3367},{"id":"8534319","name":"Tuckerton, Shooting Thorofare, Little Egg Inlet","lat":39.5083,"lng":-74.325},{"id":"8534393","name":"Main Marsh Thorofare","lat":39.4783,"lng":-74.3833},{"id":"8534468","name":"Mays Landing, Great Egg Harbor River","lat":39.4483,"lng":-74.7283},{"id":"8534496","name":"Brigantine Channel @ Hoffman Thorofare","lat":39.435,"lng":-74.3633},{"id":"8534540","name":"Absecon, Absecon Creek, U.S. Hwy. 30 bridge","lat":39.4233,"lng":-74.5},{"id":"8534638","name":"Absecon Channel, State Route 87 bridge","lat":39.385,"lng":-74.425},{"id":"8534657","name":"Pleasantville, Lakes Bay, Great Egg Harbor Inlet","lat":39.3817,"lng":-74.5183},{"id":"8534691","name":"River Bend Marina, Great Egg Harbor River","lat":39.3683,"lng":-74.7167},{"id":"8534720","name":"Atlantic City (Ocean)","lat":39.35667,"lng":-74.41805},{"id":"8534739","name":"Dock Thorofare, Risley Channel","lat":39.3517,"lng":-74.54},{"id":"8534770","name":"Ventnor City, ocean pier","lat":39.335,"lng":-74.4767},{"id":"8534778","name":"Steelmanville, Patcong Ck., 2.5 nm above ent.","lat":39.335,"lng":-74.5967},{"id":"8534836","name":"Longport (inside), Great Egg Harbor Inlet","lat":39.3083,"lng":-74.5333},{"id":"8534883","name":"Tuckahoe, Tuckahoe River","lat":39.295,"lng":-74.7483},{"id":"8534975","name":"Beesleys Point","lat":39.2883,"lng":-74.6283},{"id":"8535001","name":"Cedar Swamp Creek, Tuckahoe River","lat":39.2467,"lng":-74.7183},{"id":"8535055","name":"Bivalve, Maurice River","lat":39.2325,"lng":-75.0328},{"id":"8535101","name":"Middle Thorofare, Ocean Drive bridge","lat":39.215,"lng":-74.6483},{"id":"8535163","name":"Strathmere, Strathmere Bay","lat":39.2,"lng":-74.6567},{"id":"8535221","name":"Ludlam Bay, west side","lat":39.1767,"lng":-74.71},{"id":"8535309","name":"Townsend Sound","lat":39.1467,"lng":-74.75},{"id":"8535357","name":"Stites Sound","lat":39.12,"lng":-74.755},{"id":"8535375","name":"Ocean Drive bridge","lat":39.1217,"lng":-74.7167},{"id":"8535419","name":"Ingram Thorofare","lat":39.11,"lng":-74.7383},{"id":"8535451","name":"Long Reach, Ingram Thorofare","lat":39.1017,"lng":-74.755},{"id":"8535581","name":"Stone Harbor, Great Channel","lat":39.0567,"lng":-74.765},{"id":"8535661","name":"Nummy Island, Grassy Sound Channel","lat":39.0283,"lng":-74.8017},{"id":"8535695","name":"Old Turtle Thorofare, RR. bridge","lat":39.0183,"lng":-74.8417},{"id":"8535726","name":"West Wildwood, Grassy Sound","lat":39.005,"lng":-74.8267},{"id":"8535805","name":"Swain Channel, Taylor Sound","lat":38.98,"lng":-74.8633},{"id":"8535835","name":"Wildwood Crest, ocean pier","lat":38.975,"lng":-74.8233},{"id":"8535838","name":"Wildwood Crest, Sunset Lake","lat":38.9783,"lng":-74.8367},{"id":"8535901","name":"Cape May Harbor","lat":38.9483,"lng":-74.8917},{"id":"8535902","name":"Cape Island Creek, Cape May","lat":38.9467,"lng":-74.9133},{"id":"8535962","name":"Cape May, Atlantic Ocean","lat":38.93,"lng":-74.935},{"id":"8536021","name":"Cape May Point, Sunset Beach","lat":38.9467,"lng":-74.9717},{"id":"8536110","name":"Cape May, ferry terminal","lat":38.9683,"lng":-74.96},{"id":"8536271","name":"North Highlands Beach","lat":39.0183,"lng":-74.9533},{"id":"8536449","name":"Dias Creek, Route 47 bridge","lat":39.0833,"lng":-74.8867},{"id":"8536551","name":"Bidwell Creek, Route 47 bridge","lat":39.1183,"lng":-74.8683},{"id":"8536581","name":"Bidwell Creek entrance","lat":39.1283,"lng":-74.8917},{"id":"8536687","name":"Sluice Creek, Route 47 bridge, Dennis Creek","lat":39.1617,"lng":-74.8317},{"id":"8536736","name":"Dennis Creek, 2.5 n.mi. above entrance","lat":39.1783,"lng":-74.8517},{"id":"8536752","name":"Dennis Creek, Route 47 bridge","lat":39.1833,"lng":-74.8217},{"id":"8536764","name":"West Creek, 0.7 n.mi. above entrance","lat":39.1883,"lng":-74.915},{"id":"8536780","name":"East Point, Maurice River Cove","lat":39.2,"lng":-75.02},{"id":"8536801","name":"Riggins Ditch, 0.5 n.mi. above entrance","lat":39.2,"lng":-74.97},{"id":"8536823","name":"East Creek, Route 47 bridge","lat":39.2083,"lng":-74.9017},{"id":"8536848","name":"Fishing Creek entrance","lat":39.2167,"lng":-75.1583},{"id":"8536849","name":"Dividing Creek entrance","lat":39.2167,"lng":-75.1033},{"id":"8536851","name":"West Creek, Route 47 bridge","lat":39.2167,"lng":-74.925},{"id":"8536855","name":"Riggins Ditch, Heislerville","lat":39.2183,"lng":-74.98},{"id":"8536931","name":"Fortescue Creek","lat":39.2383,"lng":-75.175},{"id":"8536935","name":"Weir Creek bridge, Dividing Creek","lat":39.25,"lng":-75.1283},{"id":"8537026","name":"Hollywood Beach, The Glades","lat":39.275,"lng":-75.1417},{"id":"8537052","name":"Money Island, Nantuxent Creek entrance","lat":39.285,"lng":-75.2383},{"id":"8537059","name":"Mauricetown","lat":39.285,"lng":-74.9917},{"id":"8537079","name":"Newport Landing, Nantuxent Creek","lat":39.2917,"lng":-75.1983},{"id":"8537101","name":"Cedar Creek entrance, Nantuxent Cove","lat":39.2983,"lng":-75.2467},{"id":"8537116","name":"Back Creek entrance, Nantuxent Cove","lat":39.305,"lng":-75.2783},{"id":"8537121","name":"Ship John Shoal","lat":39.30539,"lng":-75.37668},{"id":"8537147","name":"Port Elizabeth, Manumuskin River","lat":39.3133,"lng":-74.985},{"id":"8537242","name":"Menantico Creek entrance","lat":39.3433,"lng":-75.0083},{"id":"8537353","name":"Tindalls Wharf, Cohansey River","lat":39.3783,"lng":-75.235},{"id":"8537359","name":"Millville","lat":39.3917,"lng":-75.0417},{"id":"8537374","name":"Greenwich Pier, Cohansey River","lat":39.3833,"lng":-75.35},{"id":"8537416","name":"Stathems Neck, Stow Creek, N.J.","lat":39.4067,"lng":-75.405},{"id":"8537488","name":"Pine Island, Malapartis Creek, N.J.","lat":39.4217,"lng":-75.4283},{"id":"8537489","name":"Raccoon Ditch, Newport Meadows, Stow Creek, N.J.","lat":39.4217,"lng":-75.3817},{"id":"8537535","name":"1 n.mi. above entrance, N.J.","lat":39.4317,"lng":-75.4467},{"id":"8537562","name":"Canton, Stow Creek, N.J.","lat":39.4617,"lng":-75.4033},{"id":"8537614","name":"Artificial Island, Salem Nuclear Plant, N.J.","lat":39.46,"lng":-75.5317},{"id":"8537667","name":"Hope Creek, 0.6 n.mi. above entrance, N.J.","lat":39.4583,"lng":-75.495},{"id":"8537731","name":"0.8 n.mi. above entrance","lat":39.4967,"lng":-75.5167},{"id":"8537753","name":"2.5 n.mi. above entrance","lat":39.505,"lng":-75.4833},{"id":"8537774","name":"Abbots Meadow","lat":39.5117,"lng":-75.4933},{"id":"8537779","name":"Coopers Creek bridge","lat":39.5133,"lng":-75.4467},{"id":"8537889","name":"Quinton","lat":39.5483,"lng":-75.415},{"id":"8537961","name":"Sinnickson Landing","lat":39.57,"lng":-75.4983},{"id":"8537979","name":"Salem","lat":39.5767,"lng":-75.4767},{"id":"8538231","name":"Salem Canal entrance, N.J.","lat":39.6833,"lng":-75.51},{"id":"8538274","name":"Auburn, Oldmans Creek, N.J.","lat":39.715,"lng":-75.36},{"id":"8538369","name":"Pedricktown, Oldmans Creek, N.J.","lat":39.7617,"lng":-75.4033},{"id":"8538438","name":"Mantua, Mantua Creek, N.J.","lat":39.795,"lng":-75.1767},{"id":"8538449","name":"Bridgeport, Raccoon Creek, N.J.","lat":39.8067,"lng":-75.355},{"id":"8538512","name":"Paulsboro, Mantua Creek, N.J.","lat":39.835,"lng":-75.2383},{"id":"8538548","name":"Woodbury Creek, N.J.","lat":39.86,"lng":-75.1867},{"id":"8538552","name":"Billingsport, N.J.","lat":39.85,"lng":-75.25},{"id":"8538601","name":"Westville, Rt. 47 bridge, Big Timber Creek, N.J.","lat":39.8733,"lng":-75.1233},{"id":"8538752","name":"Pavonia, Cooper River, RR. bridge, N.J.","lat":39.9467,"lng":-75.105},{"id":"8538824","name":"Hainesport, South Branch","lat":39.9783,"lng":-74.8233},{"id":"8538848","name":"North Branch","lat":39.9983,"lng":-74.8183},{"id":"8538853","name":"Palmyra, Pennsauken Creek, Route 73 bridge, N.J.","lat":39.9933,"lng":-75.0283},{"id":"8538875","name":"Pompeston Creek, N.J.","lat":40.0133,"lng":-75.0083},{"id":"8538886","name":"Tacony-Palmyra Bridge","lat":40.0119,"lng":-75.043},{"id":"8538921","name":"Bridgeboro","lat":40.0283,"lng":-74.9317},{"id":"8539058","name":"Assiscunk Creek, Route 130 bridge, N.J.","lat":40.0733,"lng":-74.8483},{"id":"8539094","name":"Burlington, N.J.","lat":40.0817,"lng":-74.8697},{"id":"8539487","name":"Fieldsboro, N.J.","lat":40.1367,"lng":-74.7367},{"id":"8539993","name":"Trenton, N.J.","lat":40.1883,"lng":-74.755},{"id":"8540433","name":"Marcus Hook, Pa.","lat":39.81181,"lng":-75.4095},{"id":"8542425","name":"Wanamaker Bridge","lat":39.8767,"lng":-75.305},{"id":"8542699","name":"Norwood City","lat":39.88,"lng":-75.29},{"id":"8542885","name":"Tinicum National Wildlife Refuge","lat":39.8783,"lng":-75.2767},{"id":"8543024","name":"Tinicum National Wildlife Refuge","lat":39.8867,"lng":-75.265},{"id":"8543925","name":"Penrose Avenue Bridge","lat":39.8983,"lng":-75.2117},{"id":"8545120","name":"Market Street Bridge","lat":39.955,"lng":-75.18},{"id":"8545240","name":"PHILADELPHIA, US Coast Guard Station, Pa.","lat":39.93306,"lng":-75.14198},{"id":"8545530","name":"Philadelphia, Municipal Pier 11, Pa.","lat":39.9533,"lng":-75.1383},{"id":"8546252","name":"Bridesburg, Philadelphia, Pa.","lat":39.97968,"lng":-75.07932},{"id":"8547333","name":"Cornwells Heights, Pa.","lat":40.0683,"lng":-74.9383},{"id":"8548989","name":"Newbold, Pa.","lat":40.13733,"lng":-74.75183},{"id":"8549424","name":"Edgely, Pa.","lat":40.1283,"lng":-74.8233},{"id":"8550438","name":"Edgemoor, Del.","lat":39.75,"lng":-75.4933},{"id":"8550658","name":"Millside, RR. bridge","lat":39.725,"lng":-75.56},{"id":"8550714","name":"Wilmington Marine Terminal","lat":39.7183,"lng":-75.52},{"id":"8551201","name":"New Castle, Delaware","lat":39.6567,"lng":-75.5617},{"id":"8551702","name":"Pea Patch Island, Bulkhead Shoal Channel, Del.","lat":39.5833,"lng":-75.5733},{"id":"8551762","name":"Delaware City","lat":39.58219,"lng":-75.58897},{"id":"8551851","name":"Delaware City Branch Channel bridge","lat":39.57,"lng":-75.59},{"id":"8551910","name":"REEDY POINT","lat":39.55833,"lng":-75.57194},{"id":"8551973","name":"St. Georges, Delaware","lat":39.555,"lng":-75.6483},{"id":"8552125","name":"Summit Bridge, Delaware","lat":39.5333,"lng":-75.7333},{"id":"8553069","name":"Taylors Bridge, Blackbird Creek, Del.","lat":39.405,"lng":-75.5983},{"id":"8553501","name":"Woodland Beach, Del.","lat":39.3333,"lng":-75.4667},{"id":"8554038","name":"Leipsic, Leipsic River","lat":39.245,"lng":-75.5183},{"id":"8554399","name":"Mahon River entrance","lat":39.185,"lng":-75.4},{"id":"8555388","name":"Murderkill River entrance","lat":39.0583,"lng":-75.3967},{"id":"8555889","name":"Brandywine Shoal Light","lat":38.98667,"lng":-75.11333},{"id":"8556198","name":"Mispillion River entrance","lat":38.945,"lng":-75.3133},{"id":"8557380","name":"LEWES (BREAKWATER HARBOR)","lat":38.78283,"lng":-75.11928},{"id":"8557863","name":"Rehoboth Beach","lat":38.72,"lng":-75.0833},{"id":"8558690","name":"Indian River Inlet (Coast Guard Station)","lat":38.61,"lng":-75.07},{"id":"8558814","name":"Rosedale Beach, Indian River","lat":38.5915,"lng":-75.2116},{"id":"8559957","name":"Little Assawoman Bay","lat":38.455,"lng":-75.0583},{"id":"8570255","name":"Keydash, Isle of Wight Bay","lat":38.3417,"lng":-75.085},{"id":"8570280","name":"OCEAN CITY (FISHING PIER)","lat":38.3267,"lng":-75.0833},{"id":"8570282","name":"Ocean City (Isle of Wight Bay)","lat":38.3317,"lng":-75.09},{"id":"8570283","name":"Ocean City Inlet","lat":38.32833,"lng":-75.09167},{"id":"8570536","name":"South Point, Sinepuxent Neck","lat":38.215,"lng":-75.1917},{"id":"8570649","name":"Public Landing","lat":38.1483,"lng":-75.285},{"id":"8570691","name":"Buntings Bridge","lat":38.13894,"lng":-75.18353},{"id":"8571072","name":"Ape Hole Creek, Pocomoke Sound","lat":37.96169,"lng":-75.82169},{"id":"8571091","name":"Crisfield, Little Annemessex River","lat":37.9767,"lng":-75.8633},{"id":"8571097","name":"Shelltown","lat":37.98,"lng":-75.6383},{"id":"8571117","name":"Ewell, Smith Island","lat":37.995,"lng":-76.0317},{"id":"8571181","name":"Colburn Creek, Big Annemessex River","lat":38.0483,"lng":-75.8033},{"id":"8571201","name":"Long Point, Big Annemessex River","lat":38.0567,"lng":-75.8033},{"id":"8571214","name":"Holland Island Bar Light","lat":38.0683,"lng":-76.0967},{"id":"8571269","name":"Teague Creek, Manokin River","lat":38.1083,"lng":-75.8383},{"id":"8571351","name":"Chance","lat":38.1717,"lng":-75.945},{"id":"8571359","name":"Snowhill, city park","lat":38.17833,"lng":-75.39667},{"id":"8571396","name":"Sharkfin Shoal Light","lat":38.2017,"lng":-75.9867},{"id":"8571402","name":"Hooper Strait Light","lat":38.2267,"lng":-76.0767},{"id":"8571416","name":"Great Shoals Light, Monie Bay","lat":38.2167,"lng":-75.8833},{"id":"8571421","name":"Bishops Head, Hooper Strait","lat":38.22,"lng":-76.0383},{"id":"8571476","name":"Roaring Point","lat":38.2617,"lng":-75.92},{"id":"8571485","name":"Whitehaven","lat":38.2683,"lng":-75.7883},{"id":"8571519","name":"Middle Hooper Island","lat":38.2967,"lng":-76.205},{"id":"8571559","name":"McCready's Creek, Fishing Bay","lat":38.3,"lng":-76.005},{"id":"8571579","name":"Barren Island","lat":38.3417,"lng":-76.265},{"id":"8571616","name":"Salisbury, Wicomico River","lat":38.365,"lng":-75.6067},{"id":"8571702","name":"Smithville Road Bridge, Beaverdam Creek","lat":38.42833,"lng":-76.23667},{"id":"8571752","name":"Taylors Island, Slaughter Creek","lat":38.4667,"lng":-76.295},{"id":"8571773","name":"Vienna","lat":38.48333,"lng":-75.81833},{"id":"8571807","name":"Woolford, Church Creek","lat":38.5067,"lng":-76.1733},{"id":"8571858","name":"Sharptown","lat":38.545,"lng":-75.7233},{"id":"8571881","name":"Cherry Island, Beckwiths Creek","lat":38.5617,"lng":-76.2083},{"id":"8571892","name":"Cambridge","lat":38.5725,"lng":-76.06167},{"id":"8571901","name":"Avalon, Dogwood Harbor","lat":38.71,"lng":-76.335},{"id":"8571944","name":"Dover Bridge","lat":38.7567,"lng":-75.9983},{"id":"8571979","name":"Tilghman Island, Ferry Cove, Eastern Bay","lat":38.765,"lng":-76.3283},{"id":"8572108","name":"Oxford","lat":38.6933,"lng":-76.1733},{"id":"8572204","name":"Deep Neck Point, Broad Creek","lat":38.7317,"lng":-76.235},{"id":"8572271","name":"Poplar Island","lat":38.75833,"lng":-76.375},{"id":"8572296","name":"Easton Point","lat":38.7683,"lng":-76.095},{"id":"8572313","name":"St. Michaels, San Domingo Creek","lat":38.775,"lng":-76.2333},{"id":"8572342","name":"St. Michaels, Miles River","lat":38.7867,"lng":-76.2217},{"id":"8572467","name":"Kent Point Marina","lat":38.8367,"lng":-76.3733},{"id":"8572468","name":"Claiborne, Eastern Bay","lat":38.8367,"lng":-76.28},{"id":"8572669","name":"Hillsboro, Tuckahoe Creek","lat":38.9167,"lng":-75.945},{"id":"8572770","name":"Matapeake, Kent Island","lat":38.9567,"lng":-76.355},{"id":"8572792","name":"Kent Island Narrows","lat":38.9667,"lng":-76.2433},{"id":"8572867","name":"Queenstown","lat":38.9967,"lng":-76.1583},{"id":"8572955","name":"Love Point","lat":39.0317,"lng":-76.3017},{"id":"8573006","name":"Centreville Landing, Corsica River","lat":39.0533,"lng":-76.075},{"id":"8573125","name":"Cliffs Point","lat":39.1067,"lng":-76.1417},{"id":"8573137","name":"Cliffs Wharf","lat":39.11,"lng":-76.1383},{"id":"8573211","name":"Deep Landing, Swan Creek","lat":39.145,"lng":-76.26},{"id":"8573343","name":"Chestertown","lat":39.2067,"lng":-76.0633},{"id":"8573349","name":"Crumpton","lat":39.245,"lng":-75.925},{"id":"8573364","name":"Tolchester Beach","lat":39.21344,"lng":-76.24456},{"id":"8573442","name":"Worton Creek entrance","lat":39.2967,"lng":-76.1717},{"id":"8573704","name":"Sassafras River, Betterton","lat":39.3717,"lng":-76.0633},{"id":"8573903","name":"Town Point Wharf","lat":39.5033,"lng":-75.9167},{"id":"8573927","name":"Chesapeake City, Maryland","lat":39.52667,"lng":-75.81},{"id":"8573968","name":"Charlestown, Northeast River","lat":39.5733,"lng":-75.97},{"id":"8573969","name":"Old Frenchtown Wharf","lat":39.575,"lng":-75.8433},{"id":"8574008","name":"Port Deposit","lat":39.6033,"lng":-76.1133},{"id":"8574070","name":"Havre de Grace","lat":39.5367,"lng":-76.09},{"id":"8574459","name":"Pond Point, Bush River","lat":39.3883,"lng":-76.255},{"id":"8574680","name":"Baltimore, Fort McHenry","lat":39.26669,"lng":-76.57831},{"id":"8574683","name":"Fort McHenry Marsh","lat":39.2617,"lng":-76.585},{"id":"8574821","name":"Hawkins Point","lat":39.2083,"lng":-76.5333},{"id":"8574857","name":"North Point","lat":39.1967,"lng":-76.445},{"id":"8574931","name":"Stony Creek","lat":39.1633,"lng":-76.5267},{"id":"8575109","name":"Cornfield Creek, Magothy River","lat":39.1,"lng":-76.445},{"id":"8575229","name":"Mountain Point, Magothy River","lat":39.0617,"lng":-76.4333},{"id":"8575331","name":"Brewer Point","lat":39.0267,"lng":-76.5333},{"id":"8575512","name":"Annapolis (US Naval Academy)","lat":38.98388,"lng":-76.48003},{"id":"8575550","name":"Gingerville Creek, South River","lat":38.9583,"lng":-76.555},{"id":"8575579","name":"Edgewater, South River","lat":38.95,"lng":-76.55},{"id":"8575737","name":"Thomas Point Shoal Light","lat":38.9,"lng":-76.4333},{"id":"8575787","name":"Rhode River (County Wharf)","lat":38.8867,"lng":-76.54},{"id":"8575923","name":"Galesville, West River","lat":38.8417,"lng":-76.54},{"id":"8576256","name":"Rose Haven","lat":38.725,"lng":-76.5417},{"id":"8576363","name":"Chesapeake Beach","lat":38.7,"lng":-76.5333},{"id":"8577004","name":"Long Beach","lat":38.465,"lng":-76.4733},{"id":"8577123","name":"Broomes Island","lat":38.415,"lng":-76.545},{"id":"8577188","name":"Cove Point","lat":38.3917,"lng":-76.3983},{"id":"8577330","name":"Solomons Island","lat":38.3167,"lng":-76.4517},{"id":"8577940","name":"Cornfield Harbor, Md.","lat":38.06,"lng":-76.3617},{"id":"8578002","name":"Point Lookout","lat":38.04,"lng":-76.3233},{"id":"8578240","name":"Piney Point, Md.","lat":38.13333,"lng":-76.53333},{"id":"8578465","name":"Colton Point, Md.","lat":38.2233,"lng":-76.7483},{"id":"8578551","name":"Mills Point (south of), Wicomico Riv., Md.","lat":38.3267,"lng":-76.8333},{"id":"8578693","name":"Lower Cedar Point, Md.","lat":38.3417,"lng":-76.9767},{"id":"8578769","name":"Goose Creek, Port Tobacco River, Md.","lat":38.4533,"lng":-77.0533},{"id":"8578853","name":"Riverside, Md.","lat":38.3867,"lng":-77.145},{"id":"8578984","name":"Liverpool Point, Md.","lat":38.46,"lng":-77.27},{"id":"8579135","name":"Benedict","lat":38.5133,"lng":-76.67},{"id":"8579381","name":"Indian Head, Md.","lat":38.6017,"lng":-77.185},{"id":"8579542","name":"Lower Marlboro","lat":38.655,"lng":-76.68333},{"id":"8579629","name":"Marshall Hall, Md.","lat":38.6867,"lng":-77.1017},{"id":"8579997","name":"Bladensburg, Md.","lat":38.9333,"lng":-76.9383},{"id":"8590111","name":"Bellevue, D.C.","lat":38.8267,"lng":-77.0267},{"id":"8593005","name":"Washington Naval Yard","lat":38.8717,"lng":-76.995},{"id":"8593545","name":"Kingman Lake","lat":38.895,"lng":-76.9683},{"id":"8593909","name":"Kenilworth Aquatic Garden","lat":38.91,"lng":-76.955},{"id":"8594900","name":"WASHINGTON, Washington Channel, D.C.","lat":38.87333,"lng":-77.02167},{"id":"8630055","name":"Franklin City","lat":38.0067,"lng":-75.3817},{"id":"8630111","name":"Jesters Island","lat":37.9817,"lng":-75.3017},{"id":"8630194","name":"Chincoteague Island, Blake Cove","lat":37.9517,"lng":-75.355},{"id":"8630225","name":"Chincoteague Island, Oyster Bay","lat":37.9417,"lng":-75.3467},{"id":"8630229","name":"Chincoteague Island, Lewis Creek","lat":37.9383,"lng":-75.3733},{"id":"8630249","name":"Chincoteague Island, USCG Station","lat":37.9317,"lng":-75.3833},{"id":"8630308","name":"Chincoteague Channel (south end)","lat":37.9067,"lng":-75.405},{"id":"8630315","name":"Southern Chincoteague Island","lat":37.9024,"lng":-75.4079},{"id":"8630371","name":"Wishart Point, Bogues Bay","lat":37.8817,"lng":-75.4917},{"id":"8630413","name":"Assateague Beach, Toms Cove","lat":37.865,"lng":-75.3683},{"id":"8630440","name":"Wallops Island","lat":37.8417,"lng":-75.4783},{"id":"8630637","name":"Gargathy Neck","lat":37.7767,"lng":-75.5617},{"id":"8630839","name":"Folly Creek, Metompkin Inlet","lat":37.6967,"lng":-75.635},{"id":"8630901","name":"Metompkin Inlet","lat":37.6717,"lng":-75.595},{"id":"8631044","name":"Wachapreague, Wachapreague Channel","lat":37.60778,"lng":-75.68583},{"id":"8631234","name":"Revel Creek, Revel Island","lat":37.4967,"lng":-75.6833},{"id":"8631287","name":"Upshur Neck, south end","lat":37.4667,"lng":-75.8},{"id":"8631411","name":"Great Machipongo Inlet (inside)","lat":37.3933,"lng":-75.7133},{"id":"8631542","name":"Sand Shoal Inlet (Coast Guard Station)","lat":37.3017,"lng":-75.7783},{"id":"8631591","name":"Oyster Harbor","lat":37.2883,"lng":-75.925},{"id":"8631874","name":"Smith Island (Coast Guard Station)","lat":37.1233,"lng":-75.9117},{"id":"8632085","name":"Fishermans Island","lat":37.0967,"lng":-75.9833},{"id":"8632200","name":"Kiptopeke Beach","lat":37.1652,"lng":-75.9884},{"id":"8632314","name":"Old Plantation Light","lat":37.2333,"lng":-76.05},{"id":"8632366","name":"Cape Charles Harbor","lat":37.2633,"lng":-76.02},{"id":"8632837","name":"Rappahannock Light","lat":37.5383,"lng":-76.015},{"id":"8632869","name":"Gaskins Point, Occohannock Creek","lat":37.5567,"lng":-75.9167},{"id":"8633091","name":"Harborton, Pungoteague Creek","lat":37.6667,"lng":-75.8333},{"id":"8633214","name":"Onancock, Onancock Creek","lat":37.7117,"lng":-75.7567},{"id":"8633362","name":"Chesconessex Creek, Schooner Bay","lat":37.7633,"lng":-75.7733},{"id":"8633451","name":"Watts Island","lat":37.7983,"lng":-75.8967},{"id":"8633532","name":"Tangier Island","lat":37.8283,"lng":-75.9933},{"id":"8633596","name":"Guard Shore","lat":37.85,"lng":-75.7},{"id":"8633604","name":"Muddy Creek Entrance","lat":37.855,"lng":-75.675},{"id":"8633777","name":"Saxis, Starling Creek","lat":37.9217,"lng":-75.7283},{"id":"8634214","name":"Alexandria, Va.","lat":38.805,"lng":-77.0383},{"id":"8634689","name":"Quantico, Va.","lat":38.52,"lng":-77.2867},{"id":"8634858","name":"Aquia Creek, Va.","lat":38.4183,"lng":-77.3533},{"id":"8634892","name":"Mathias Point, Va.","lat":38.3983,"lng":-77.0533},{"id":"8635027","name":"Dahlgren, Upper Machodoc Creek, Va.","lat":38.31975,"lng":-77.0366},{"id":"8635150","name":"Colonial Beach, Va.","lat":38.2517,"lng":-76.96},{"id":"8635154","name":"Massaponax","lat":38.255,"lng":-77.41},{"id":"8635171","name":"Hopyard Landing","lat":38.2433,"lng":-77.2267},{"id":"8635257","name":"Park Turn","lat":38.2133,"lng":-77.2433},{"id":"8635299","name":"Port Royal","lat":38.1733,"lng":-77.19},{"id":"8635409","name":"Mount Holly, Nomini Creek, Va.","lat":38.0983,"lng":-76.735},{"id":"8635485","name":"Ragged Point, Coles Neck, Va.","lat":38.1417,"lng":-76.6133},{"id":"8635554","name":"Saunders Wharf","lat":38.09,"lng":-77.0333},{"id":"8635671","name":"Kinsale, Yeocomico River, Va.","lat":38.0317,"lng":-76.5767},{"id":"8635750","name":"Lewisetta, Va.","lat":37.9961,"lng":-76.4644},{"id":"8635762","name":"Travis Point, Coan River, Va.","lat":37.9967,"lng":-76.4667},{"id":"8635881","name":"Tappahannock","lat":37.93,"lng":-76.8567},{"id":"8635959","name":"Sunnybank, Little Wicomico River","lat":37.8867,"lng":-76.2667},{"id":"8635985","name":"Wares Wharf","lat":37.8733,"lng":-76.7833},{"id":"8636046","name":"Glebe Point, Great Wicomico River","lat":37.8467,"lng":-76.3683},{"id":"8636128","name":"Fleeton Point","lat":37.8133,"lng":-76.275},{"id":"8636142","name":"Great Wicomico River Light","lat":37.805,"lng":-76.2683},{"id":"8636261","name":"Bayport","lat":37.755,"lng":-76.6733},{"id":"8636458","name":"Millenbeck, Corrotoman River","lat":37.6683,"lng":-76.4867},{"id":"8636499","name":"Wakema (Fraziers Ferry), Mattaponi River","lat":37.65,"lng":-76.9},{"id":"8636522","name":"Urbanna","lat":37.65,"lng":-76.575},{"id":"8636558","name":"Northbury","lat":37.625,"lng":-77.1217},{"id":"8636580","name":"Windmill Point","lat":37.6155,"lng":-76.28978},{"id":"8636623","name":"Windmill Point Light","lat":37.5967,"lng":-76.2367},{"id":"8636653","name":"Lester Manor","lat":37.5833,"lng":-76.99},{"id":"8636654","name":"Mill Creek (Grey Point)","lat":37.5833,"lng":-76.4183},{"id":"8636735","name":"Jackson Creek, Deltaville","lat":37.5483,"lng":-76.3317},{"id":"8636769","name":"West Point","lat":37.535,"lng":-76.7933},{"id":"8636831","name":"Dixie","lat":37.5067,"lng":-76.4167},{"id":"8636941","name":"Richmond Deepwater Terminal, James River","lat":37.45956,"lng":-77.42078},{"id":"8636969","name":"Roane Point","lat":37.4467,"lng":-76.7083},{"id":"8637072","name":"Belleville","lat":37.4117,"lng":-76.4383},{"id":"8637144","name":"Wolf Trap Light","lat":37.39,"lng":-76.19},{"id":"8637199","name":"Mobjack, East River","lat":37.3733,"lng":-76.3467},{"id":"8637444","name":"Browns Bay","lat":37.3,"lng":-76.4},{"id":"8637472","name":"Cheatham Annex","lat":37.2917,"lng":-76.5867},{"id":"8637624","name":"Gloucester Point","lat":37.2467,"lng":-76.5},{"id":"8637663","name":"Tue Marshes Light","lat":37.235,"lng":-76.385},{"id":"8637686","name":"Yorktown, Goodwin Neck","lat":37.23,"lng":-76.4367},{"id":"8637689","name":"Yorktown, USCG Training Center","lat":37.2265,"lng":-76.47881},{"id":"8637712","name":"Jamestown","lat":37.2201,"lng":-76.7914},{"id":"8638017","name":"Fort Eustis (MARAD)","lat":37.13822,"lng":-76.62275},{"id":"8638051","name":"Messick Point, Back River","lat":37.1083,"lng":-76.3183},{"id":"8638288","name":"Old Point Comfort","lat":37.0033,"lng":-76.315},{"id":"8638339","name":"Western Branch","lat":36.82322,"lng":-76.39911},{"id":"8638379","name":"Newport News","lat":36.9733,"lng":-76.4333},{"id":"8638401","name":"Huntington Park","lat":37.0133,"lng":-76.4583},{"id":"8638406","name":"Town Point","lat":36.8833,"lng":-76.5083},{"id":"8638407","name":"Menchville","lat":37.0817,"lng":-76.525},{"id":"8638409","name":"Hollidays Point (Kings Highway bridge)","lat":36.8383,"lng":-76.55},{"id":"8638418","name":"Smithfield, Pagan River","lat":36.9833,"lng":-76.63},{"id":"8638421","name":"Burwell Bay","lat":37.0567,"lng":-76.6683},{"id":"8638424","name":"Kingsmill","lat":37.22,"lng":-76.6633},{"id":"8638433","name":"Scotland","lat":37.185,"lng":-76.7833},{"id":"8638441","name":"Wright Island Landing","lat":37.345,"lng":-76.875},{"id":"8638442","name":"Ferry Point (bridge)","lat":37.2633,"lng":-76.8767},{"id":"8638445","name":"Lanexa, Chicahomny River","lat":37.4033,"lng":-76.9117},{"id":"8638449","name":"Claremont","lat":37.2317,"lng":-76.9483},{"id":"8638450","name":"Tettington, James River","lat":37.24,"lng":-76.9433},{"id":"8638455","name":"Sturgeon Point","lat":37.3067,"lng":-77.0067},{"id":"8638464","name":"Willcox Wharf, Charles City","lat":37.315,"lng":-77.0983},{"id":"8638476","name":"Jordan Point","lat":37.3133,"lng":-77.2233},{"id":"8638478","name":"Haxall","lat":37.3733,"lng":-77.2433},{"id":"8638481","name":"City Point, Hopewell","lat":37.3133,"lng":-77.27},{"id":"8638486","name":"Meadowville","lat":37.3783,"lng":-77.3233},{"id":"8638489","name":"Puddledock, Appomattox River","lat":37.2667,"lng":-77.3717},{"id":"8638491","name":"Chester","lat":37.3833,"lng":-77.3783},{"id":"8638495","name":"Richmond (river locks)","lat":37.525,"lng":-77.42},{"id":"8638514","name":"Pig Point","lat":36.9167,"lng":-76.435},{"id":"8638596","name":"Craney Island Light","lat":36.8917,"lng":-76.3383},{"id":"8638610","name":"HAMPTON ROADS (Sewells Point)","lat":36.94278,"lng":-76.32861},{"id":"8638654","name":"Norfolk","lat":36.8517,"lng":-76.2983},{"id":"8638660","name":"Portsmouth, Naval Shipyard","lat":36.8217,"lng":-76.2933},{"id":"8638671","name":"Lafayette River","lat":36.88422,"lng":-76.27586},{"id":"8638776","name":"Little Creek, NAB","lat":36.9117,"lng":-76.175},{"id":"8638854","name":"Buchanan Creek entrance","lat":36.8617,"lng":-76.115},{"id":"8638863","name":"CHESAPEAKE BAY BRIDGE TUNNEL","lat":36.9667,"lng":-76.1133},{"id":"8638867","name":"Bayville","lat":36.8933,"lng":-76.105},{"id":"8638888","name":"Lynnhaven Inlet, Virginia Pilots Dock","lat":36.9067,"lng":-76.09},{"id":"8638901","name":"CBBT, CHESAPEAKE CHANNEL","lat":37.0329,"lng":-76.0833},{"id":"8638916","name":"Long Creek","lat":36.9033,"lng":-76.07},{"id":"8638922","name":"Brown Cove","lat":36.875,"lng":-76.0617},{"id":"8638923","name":"Broad Bay Canal","lat":36.9017,"lng":-76.0617},{"id":"8638999","name":"Cape Henry","lat":36.93,"lng":-76.00667},{"id":"8639168","name":"Virginia Beach","lat":36.8433,"lng":-75.9717},{"id":"8639207","name":"Rudee Inlet, interior channel","lat":36.8317,"lng":-75.9733},{"id":"8639208","name":"Rudee Inlet entrance","lat":36.8317,"lng":-75.9683},{"id":"8639214","name":"Rudee Heights, Lake Wesley","lat":36.825,"lng":-75.975},{"id":"8639219","name":"Lake Rudee, south end","lat":36.825,"lng":-75.9817},{"id":"8639348","name":"Money Point","lat":36.77819,"lng":-76.30186},{"id":"8639414","name":"Deep Creek Entrance","lat":36.755,"lng":-76.2933},{"id":"8639428","name":"Sandbridge","lat":36.6917,"lng":-75.92},{"id":"8651370","name":"DUCK PIER","lat":36.1833,"lng":-75.7467},{"id":"8651605","name":"Kitty Hawk (ocean)","lat":36.1017,"lng":-75.71},{"id":"8652226","name":"Jennettes Pier, Nags Head (ocean)","lat":35.91,"lng":-75.59169},{"id":"8652247","name":"Manns Harbor, Croatan Sound","lat":35.9033,"lng":-75.77},{"id":"8652437","name":"Oyster Creek, Croatan Sound","lat":35.845,"lng":-75.655},{"id":"8652547","name":"Roanoke Marshes Light, Croatan Sound","lat":35.8117,"lng":-75.7},{"id":"8652587","name":"OREGON INLET MARINA","lat":35.79569,"lng":-75.54819},{"id":"8652591","name":"Roanoke Sound Channel","lat":35.7983,"lng":-75.5833},{"id":"8652648","name":"Old House Channel","lat":35.7767,"lng":-75.585},{"id":"8652657","name":"Oregon Inlet Channel","lat":35.7733,"lng":-75.5583},{"id":"8652659","name":"Oregon Inlet Bridge","lat":35.7733,"lng":-75.5383},{"id":"8652678","name":"Oregon Inlet (USCG Station)","lat":35.7683,"lng":-75.5267},{"id":"8652737","name":"Davis Slough","lat":35.7483,"lng":-75.5533},{"id":"8653215","name":"Rodanthe, Pamlico Sound","lat":35.595,"lng":-75.4717},{"id":"8653244","name":"Pungo River, Route 45, NC","lat":35.5852,"lng":-76.4856},{"id":"8653471","name":"Engelhard","lat":35.5094,"lng":-75.9889},{"id":"8653951","name":"Peter's Ditch","lat":35.35014,"lng":-75.51203},{"id":"8654400","name":"CAPE HATTERAS FISHING PIER","lat":35.2233,"lng":-75.635},{"id":"8654467","name":"Hatteras (ocean)","lat":35.20861,"lng":-75.70419},{"id":"8654769","name":"Ocracoke, Pamlico Sound","lat":35.1155,"lng":-75.9869},{"id":"8655133","name":"Oriental, Neuse River","lat":35.0246,"lng":-76.6918},{"id":"8655151","name":"Cedar Island","lat":35.0189,"lng":-76.3143},{"id":"8655875","name":"Sea Level","lat":34.875,"lng":-76.3433},{"id":"8656084","name":"Core Creek Bridge","lat":34.825,"lng":-76.69},{"id":"8656201","name":"Davis, Core Sound","lat":34.7968,"lng":-76.4555},{"id":"8656225","name":"North River Bridge","lat":34.7917,"lng":-76.6083},{"id":"8656306","name":"Newport River (Yacht Club)","lat":34.7683,"lng":-76.6717},{"id":"8656451","name":"Gallant Channel","lat":34.7283,"lng":-76.6683},{"id":"8656467","name":"SpoonersCreek","lat":34.725,"lng":-76.8033},{"id":"8656483","name":"Beaufort, Duke Marine Lab","lat":34.71733,"lng":-76.67066},{"id":"8656496","name":"Morehead City","lat":34.7183,"lng":-76.695},{"id":"8656499","name":"Atlantic Beach Bridge","lat":34.7183,"lng":-76.7367},{"id":"8656502","name":"Morehead City Harbor","lat":34.72,"lng":-76.7108},{"id":"8656503","name":"Harkers Island Bridge","lat":34.715,"lng":-76.5783},{"id":"8656518","name":"Beaufort, Taylor Creek","lat":34.7117,"lng":-76.645},{"id":"8656539","name":"Lenoxville Point","lat":34.7083,"lng":-76.62},{"id":"8656554","name":"Channel Marker Lt. 59","lat":34.7033,"lng":-76.62},{"id":"8656566","name":"Coral Bay, Atlantic Beach","lat":34.7,"lng":-76.7683},{"id":"8656569","name":"Beaufort Inlet Channel Range","lat":34.6983,"lng":-76.665},{"id":"8656571","name":"Fort Macon, USCG Station","lat":34.6983,"lng":-76.6817},{"id":"8656590","name":"Atlantic Beach","lat":34.6933,"lng":-76.7117},{"id":"8656613","name":"Swansboro, East Corbett Ave. Bridge","lat":34.6866,"lng":-77.1181},{"id":"8656841","name":"Cape Lookout Bight","lat":34.6133,"lng":-76.5383},{"id":"8656937","name":"Cape Lookout (ocean)","lat":34.6083,"lng":-76.5283},{"id":"8657002","name":"Sneads Ferry, New River","lat":34.5763,"lng":-77.3954},{"id":"8657167","name":"New River Inlet","lat":34.5333,"lng":-77.3417},{"id":"8657419","name":"Ocean City Beach (fishing pier)","lat":34.4517,"lng":-77.495},{"id":"8657813","name":"Hampstead","lat":34.3394,"lng":-77.706},{"id":"8658120","name":"Wilmington","lat":34.2267,"lng":-77.9533},{"id":"8658145","name":"Shinn Point, ICWW","lat":34.2179,"lng":-77.8123},{"id":"8658163","name":"Wrightsville Beach","lat":34.21331,"lng":-77.78669},{"id":"8658501","name":"Orton Point","lat":34.0567,"lng":-77.94},{"id":"8658559","name":"Wilmington Beach","lat":34.0317,"lng":-77.8933},{"id":"8658579","name":"Sunny Point Army Base, Wharf no.3","lat":34.0233,"lng":-77.9467},{"id":"8658622","name":"Reaves Point","lat":34.0033,"lng":-77.955},{"id":"8658654","name":"Sunny Point Army Base, Wharf no.1","lat":33.99,"lng":-77.9567},{"id":"8658715","name":"Federal Point","lat":33.9617,"lng":-77.94},{"id":"8658741","name":"Zekes Island","lat":33.95,"lng":-77.9517},{"id":"8658901","name":"Bald Head","lat":33.88,"lng":-78.0017},{"id":"8659084","name":"Southport","lat":33.915,"lng":-78.0183},{"id":"8659086","name":"Fort Caswell","lat":33.8967,"lng":-78.0167},{"id":"8659182","name":"Oak Island, Yaupon Beach","lat":33.9017,"lng":-78.0817},{"id":"8659414","name":"Varnamtown, Lockwoods Folly River","lat":33.9331,"lng":-78.2189},{"id":"8659665","name":"Bowen Point, Shallotte Inlet","lat":33.915,"lng":-78.3733},{"id":"8659897","name":"Sunset Beach Pier","lat":33.865,"lng":-78.5067},{"id":"8660098","name":"Little River Neck, north end","lat":33.87,"lng":-78.5733},{"id":"8660121","name":"Little River (town)","lat":33.87,"lng":-78.6083},{"id":"8660147","name":"Dunn Sound, north end","lat":33.86,"lng":-78.58},{"id":"8660148","name":"Dunn Sound, Little River Inlet","lat":33.8583,"lng":-78.57},{"id":"8660166","name":"Nixon Crossroads","lat":33.855,"lng":-78.6483},{"id":"8660195","name":"Dunn Sound, west end","lat":33.8517,"lng":-78.5883},{"id":"8660265","name":"Cherry Grove (inside)","lat":33.835,"lng":-78.6333},{"id":"8660266","name":"Hog Inlet Pier","lat":33.8367,"lng":-78.6067},{"id":"8660275","name":"Conway, RR. bridge","lat":33.835,"lng":-79.0417},{"id":"8660315","name":"Grahamville","lat":33.83,"lng":-78.9533},{"id":"8660401","name":"Myrtle Beach Airport","lat":33.82,"lng":-78.7183},{"id":"8660475","name":"Pitch Landing","lat":33.8,"lng":-79.055},{"id":"8660642","name":"North Myrtle Beach, ICWW","lat":33.7667,"lng":-78.815},{"id":"8660754","name":"Carolina Forest, ICWW","lat":33.7349,"lng":-78.8827},{"id":"8660831","name":"Keysfield","lat":33.745,"lng":-79.065},{"id":"8660854","name":"Myrtle Beach, Combination Bridge","lat":33.7133,"lng":-78.9217},{"id":"8660983","name":"Socastee Bridge","lat":33.6867,"lng":-79.005},{"id":"8661067","name":"Enterprise Landing","lat":33.6667,"lng":-79.0633},{"id":"8661070","name":"Springmaid Pier, Myrtle beach","lat":33.655,"lng":-78.9183},{"id":"8661093","name":"Yauhannah Bridge","lat":33.66,"lng":-79.155},{"id":"8661119","name":"Little Bull Creek entrance, Bull Creek","lat":33.6017,"lng":-79.1183},{"id":"8661139","name":"Bucksport","lat":33.6467,"lng":-79.095},{"id":"8661299","name":"Lower Topsaw Landing","lat":33.6083,"lng":-79.1517},{"id":"8661347","name":"Bull Creek entrance","lat":33.5967,"lng":-79.0983},{"id":"8661367","name":"Rhems, Black Mingo Creek, Black River","lat":33.6033,"lng":-79.4267},{"id":"8661419","name":"Garden City Bridge, Main Creek","lat":33.5783,"lng":-79.0033},{"id":"8661437","name":"Garden City Pier (ocean)","lat":33.575,"lng":-78.9967},{"id":"8661493","name":"Wachesaw Landing, Waccamaw River","lat":33.56,"lng":-79.085},{"id":"8661529","name":"Captain Alex's Marina, Parsonage Creek","lat":33.5517,"lng":-79.0367},{"id":"8661558","name":"Holly Grove Plantation","lat":33.5517,"lng":-79.1767},{"id":"8661559","name":"Smith's Dock","lat":33.545,"lng":-79.045},{"id":"8661582","name":"Divine's Dock","lat":33.5417,"lng":-79.0283},{"id":"8661593","name":"Winea Plantation, Black River","lat":33.535,"lng":-79.3883},{"id":"8661608","name":"Allston Creek","lat":33.5317,"lng":-79.0533},{"id":"8661609","name":"Oaks Creek, 0.5 mi. above entrance","lat":33.53,"lng":-79.0433},{"id":"8661684","name":"Oaks Creek, upper end","lat":33.5117,"lng":-79.0683},{"id":"8661686","name":"Black River (south of Dunbar)","lat":33.5117,"lng":-79.3417},{"id":"8661703","name":"Thoroughfare Creek entrance","lat":33.5067,"lng":-79.145},{"id":"8661734","name":"Mt. Pleasant Plantation, Black River","lat":33.495,"lng":-79.4617},{"id":"8661741","name":"Arundel Plantation","lat":33.4833,"lng":-79.1783},{"id":"8661866","name":"South of Sam Worth Game Management Area","lat":33.4683,"lng":-79.1883},{"id":"8661867","name":"Litchfield Beach bridge","lat":33.4717,"lng":-79.1017},{"id":"8661873","name":"Carr Creek, 1 mile above entrance","lat":33.465,"lng":-79.1867},{"id":"8661913","name":"Weymouth Plantation","lat":33.455,"lng":-79.205},{"id":"8661947","name":"Midway Inlet North, Pawleys Island","lat":33.4483,"lng":-79.1117},{"id":"8661989","name":"Bennet's Dock, Pawleys Island Creek","lat":33.435,"lng":-79.1267},{"id":"8661991","name":"Hagley Landing","lat":33.435,"lng":-79.1817},{"id":"8662006","name":"Pawleys Island Pier (ocean)","lat":33.4317,"lng":-79.1167},{"id":"8662071","name":"Ward's Dock, Pawleys Inlet","lat":33.4117,"lng":-79.135},{"id":"8662216","name":"Cumberland","lat":33.37,"lng":-79.4333},{"id":"8662237","name":"Jacobs Wharf","lat":33.3633,"lng":-79.355},{"id":"8662245","name":"Oyster Landing (N. Inlet Estuary)","lat":33.3517,"lng":-79.1867},{"id":"8662299","name":"Clambank Creek, Goat Island, North Inlet","lat":33.3333,"lng":-79.1933},{"id":"8662405","name":"Jamestown Bridge, Santee River","lat":33.305,"lng":-79.6783},{"id":"8662549","name":"South Island Ferry, Intracoastal Waterway","lat":33.2517,"lng":-79.2683},{"id":"8662670","name":"Pleasant Hill Landing, Santee River","lat":33.245,"lng":-79.5217},{"id":"8662746","name":"South Island Plantation (C.G. Station)","lat":33.235,"lng":-79.2033},{"id":"8662747","name":"Georgetown Lighthouse","lat":33.2233,"lng":-79.185},{"id":"8662793","name":"North Santee Bridge","lat":33.21,"lng":-79.385},{"id":"8662796","name":"Minim Creek ent., ICWW, North Santee Bay","lat":33.195,"lng":-79.275},{"id":"8662799","name":"U.S. Highway 17 bridge, South Santee River","lat":33.185,"lng":-79.4067},{"id":"8662926","name":"Georgetown, Sampit River Ent.","lat":33.3617,"lng":-79.28},{"id":"8662931","name":"Waccamaw River Entrance","lat":33.3667,"lng":-79.255},{"id":"8662953","name":"Windsor Plantation, Black River","lat":33.415,"lng":-79.25},{"id":"8663101","name":"Cape Romain","lat":33.025,"lng":-79.3483},{"id":"8663219","name":"South Santee River, ICWW, 4 Mi Canal Creek","lat":33.1542,"lng":-79.3544},{"id":"8663261","name":"Cedar Island, North Santee Bay","lat":33.14,"lng":-79.245},{"id":"8663381","name":"Cedar Island Point, South Santee River","lat":33.12,"lng":-79.27},{"id":"8663461","name":"Casino Creek, ICWW","lat":33.1083,"lng":-79.3933},{"id":"8663535","name":"Quinby Creek bridge, East Branch","lat":33.095,"lng":-79.8083},{"id":"8663539","name":"Pimlico, West Branch","lat":33.095,"lng":-79.9533},{"id":"8663618","name":"McClellanville, Jeremy Creek","lat":33.0783,"lng":-79.46},{"id":"8663631","name":"Old Rice Mill, West Branch","lat":33.0783,"lng":-79.925},{"id":"8663665","name":"Richmond Plantation, East Branch","lat":33.0767,"lng":-79.855},{"id":"8663731","name":"Bonneau Ferry, East Branch","lat":33.0717,"lng":-79.8833},{"id":"8663757","name":"Dupont, Dean Hall","lat":33.0583,"lng":-79.9367},{"id":"8663781","name":"Blessing Plantation, East Branch","lat":33.055,"lng":-79.88},{"id":"8663858","name":"Buck Hall, Awendaw Creek","lat":33.04,"lng":-79.56},{"id":"8663899","name":"Harbor River entrance","lat":33.0333,"lng":-79.535},{"id":"8664022","name":"General Dynamics Pier","lat":33.0083,"lng":-79.9233},{"id":"8664099","name":"Five Fathom Creek entrance","lat":33,"lng":-79.4967},{"id":"8664131","name":"Back River Reservoir, West Branch","lat":32.995,"lng":-79.9367},{"id":"8664442","name":"Moores Landing, ICWW, Sewee Bay","lat":32.9367,"lng":-79.655},{"id":"8664515","name":"Snow Point, 0.4 mi. North of","lat":32.9483,"lng":-79.9317},{"id":"8664531","name":"Bacon Bridge","lat":32.9583,"lng":-80.2033},{"id":"8664532","name":"Greggs Landing, Mateeba Gardens","lat":32.9317,"lng":-80.1567},{"id":"8664541","name":"Yeamans Hall, Goose Creek","lat":32.925,"lng":-79.9867},{"id":"8664545","name":"Cainhoy","lat":32.9267,"lng":-79.83},{"id":"8664582","name":"Woodville","lat":32.92,"lng":-79.7333},{"id":"8664589","name":"Hanahan, Turkey Creek, Goose Creek","lat":32.9183,"lng":-80.0117},{"id":"8664611","name":"Big Paradise Island","lat":32.915,"lng":-79.7467},{"id":"8664621","name":"Wharf Creek entrance","lat":32.9133,"lng":-79.6167},{"id":"8664662","name":"Goose Creek entrance","lat":32.91,"lng":-79.9517},{"id":"8664688","name":"Clouter Creek, north entrance","lat":32.9067,"lng":-79.935},{"id":"8664699","name":"North Charleston, Ashley river","lat":32.9003,"lng":-80.1175},{"id":"8664701","name":"Nowell Creek","lat":32.9,"lng":-79.9},{"id":"8664782","name":"Parker Island, Horlbeck Creek","lat":32.885,"lng":-79.845},{"id":"8664801","name":"Price Creek, North Capers Island","lat":32.8817,"lng":-79.6583},{"id":"8664841","name":"Magnolia Gardens","lat":32.8767,"lng":-80.0833},{"id":"8664878","name":"Old Capers Landing, Santee Pass, Capers Island","lat":32.87,"lng":-79.6867},{"id":"8664941","name":"Capers Creek, South Capers Island","lat":32.8567,"lng":-79.7067},{"id":"8664945","name":"Clouter Creek, south entrance","lat":32.86,"lng":-79.9383},{"id":"8664992","name":"North Dewees Island, Capers Inlet","lat":32.85,"lng":-79.7033},{"id":"8665002","name":"Drayton, Bee's Ferry","lat":32.8483,"lng":-80.0517},{"id":"8665099","name":"I-526 bridge","lat":32.8367,"lng":-80.0217},{"id":"8665101","name":"Cosgrove Bridge","lat":32.835,"lng":-79.9867},{"id":"8665111","name":"South Dewees Island, Dewees Inlet","lat":32.8333,"lng":-79.7267},{"id":"8665145","name":"Duck Island","lat":32.83,"lng":-79.9667},{"id":"8665167","name":"Hamlin Sound","lat":32.8267,"lng":-79.7867},{"id":"8665192","name":"Hobcaw Point","lat":32.8217,"lng":-79.9},{"id":"8665257","name":"Canaday Landing, south of, Edisto River","lat":32.8133,"lng":-80.4067},{"id":"8665387","name":"Hamlin Creek, Isle of Palms","lat":32.7867,"lng":-79.7917},{"id":"8665424","name":"Folly Creek, Hwy. 171 bridge","lat":32.675,"lng":-79.9517},{"id":"8665426","name":"Shem Creek","lat":32.7933,"lng":-79.8817},{"id":"8665475","name":"Limehouse Bridge","lat":32.7867,"lng":-80.105},{"id":"8665494","name":"Isle of Palms Pier","lat":32.7833,"lng":-79.785},{"id":"8665495","name":"South Ashley Bridge","lat":32.7833,"lng":-79.9567},{"id":"8665530","name":"CHARLESTON (Customhouse Wharf)","lat":32.78083,"lng":-79.92361},{"id":"8665552","name":"Breach Inlet, Isle of Palms","lat":32.7767,"lng":-79.8117},{"id":"8665567","name":"Ben Sawyer Bridge, ICWW","lat":32.7733,"lng":-79.8417},{"id":"8665589","name":"Sandblasters, Pennys Creek","lat":32.77,"lng":-80.0633},{"id":"8665599","name":"Pennys Creek, west entrance","lat":32.7683,"lng":-80.07},{"id":"8665613","name":"Wappoo Creek, highway bridge","lat":32.7667,"lng":-79.9733},{"id":"8665637","name":"The Cove, Fort Moultrie","lat":32.7633,"lng":-79.8567},{"id":"8665641","name":"Elliott Cut entrance","lat":32.7633,"lng":-80.0017},{"id":"8665726","name":"Fort Johnson","lat":32.7517,"lng":-79.8983},{"id":"8665728","name":"Fort Sumter","lat":32.7533,"lng":-79.8767},{"id":"8665737","name":"Jacksonboro Camp","lat":32.7533,"lng":-80.45},{"id":"8665763","name":"Hollywood, Wadmalaw River","lat":32.7467,"lng":-80.165},{"id":"8665775","name":"James Island Creek, 1 mi. above ent.","lat":32.745,"lng":-79.9483},{"id":"8665814","name":"Ashepoo","lat":32.7433,"lng":-80.5567},{"id":"8666017","name":"Penny Creek, south of, Edisto River","lat":32.715,"lng":-80.4367},{"id":"8666029","name":"Church Creek bridge","lat":32.715,"lng":-80.0917},{"id":"8666101","name":"Johns Island, Church Creek","lat":32.7067,"lng":-80.1567},{"id":"8666131","name":"Lower Toogoodoo Creek, 2 mi. above entrance","lat":32.7033,"lng":-80.2783},{"id":"8666166","name":"Cuckolds Creek","lat":32.7133,"lng":-80.695},{"id":"8666167","name":"Hope Creek, Edisto River","lat":32.7,"lng":-80.4267},{"id":"8666217","name":"Yonges Island","lat":32.695,"lng":-80.2233},{"id":"8666282","name":"Oak Branch, Bohicket Creek","lat":32.6833,"lng":-80.0967},{"id":"8666283","name":"Abbapoola Creek entrance","lat":32.6767,"lng":-80.0067},{"id":"8666359","name":"Bluff Plantation","lat":32.6833,"lng":-80.7383},{"id":"8666367","name":"Willtown Bluff, Edisto River","lat":32.6817,"lng":-80.4167},{"id":"8666433","name":"Toogoodoo Creek, 2 mi. above entrance","lat":32.6683,"lng":-80.2933},{"id":"8666467","name":"Folly River, north, Folly Island","lat":32.67,"lng":-79.9167},{"id":"8666552","name":"Park Island, Tom Point Creek","lat":32.665,"lng":-80.3167},{"id":"8666616","name":"Dawho River","lat":32.6567,"lng":-80.3917},{"id":"8666652","name":"Folly River Bridge, Folly Island","lat":32.6617,"lng":-79.945},{"id":"8666659","name":"U.S. 17 Bridge","lat":32.6517,"lng":-80.6833},{"id":"8666699","name":"Bluff Point","lat":32.6467,"lng":-80.2567},{"id":"8666749","name":"Airy Hall Plantation","lat":32.6317,"lng":-80.4717},{"id":"8666767","name":"Snake Island","lat":32.64,"lng":-80.015},{"id":"8666775","name":"Leadenwah Creek, 3 mi. above entrance","lat":32.6367,"lng":-80.2017},{"id":"8666799","name":"Dawho Bridge, Dawho River","lat":32.6367,"lng":-80.3417},{"id":"8666918","name":"Ho-Non-Wah Boy Scout Camp, Bohicket Creek","lat":32.625,"lng":-80.1667},{"id":"8667017","name":"Brickyard Ferry, swing bridge","lat":32.6133,"lng":-80.4817},{"id":"8667062","name":"Kiawah River Bridge","lat":32.6033,"lng":-80.1317},{"id":"8667067","name":"Pine Landing","lat":32.6033,"lng":-80.3883},{"id":"8667074","name":"Wiggins, Chehaw River","lat":32.6017,"lng":-80.5417},{"id":"8667075","name":"Steamboat Landing, Steamboat Creek","lat":32.6033,"lng":-80.2867},{"id":"8667076","name":"Tulifiny River, I-95 bridge","lat":32.6017,"lng":-80.9033},{"id":"8667089","name":"Rockville, Bohicket Creek","lat":32.5983,"lng":-80.195},{"id":"8667101","name":"Windsor Plantation, Russel Creek","lat":32.5983,"lng":-80.345},{"id":"8667146","name":"North Dawson Landing, Coosawhatchie River","lat":32.5617,"lng":-80.91},{"id":"8667172","name":"Sheldon, Huspa Creek, Whale Branch","lat":32.5833,"lng":-80.7833},{"id":"8667178","name":"Point of Pines","lat":32.585,"lng":-80.2283},{"id":"8667199","name":"Briars Creek ent., Wimbee Creek, Bull River","lat":32.5783,"lng":-80.67},{"id":"8667201","name":"Bluff Islands","lat":32.5783,"lng":-80.4933},{"id":"8667209","name":"Musselboro Island, Mosquito Creek","lat":32.5783,"lng":-80.4483},{"id":"8667259","name":"Fields Point","lat":32.5683,"lng":-80.5533},{"id":"8667272","name":"Bowles Island, New Chehaw River","lat":32.565,"lng":-80.5167},{"id":"8667281","name":"Ocella Creek, 2 mi. above entrance","lat":32.5617,"lng":-80.2383},{"id":"8667295","name":"White House Woods, Mosquito Creek","lat":32.5587,"lng":-80.4544},{"id":"8667309","name":"Fenwick Island","lat":32.56,"lng":-80.4183},{"id":"8667351","name":"Hutchinson Island","lat":32.5517,"lng":-80.4817},{"id":"8667411","name":"Lobeco, Whale Branch","lat":32.5733,"lng":-80.745},{"id":"8667425","name":"Peters Point, St. Pierre Creek","lat":32.54,"lng":-80.34},{"id":"8667482","name":"Ashepoo-Coosaw Cutoff, ICWW","lat":32.525,"lng":-80.4517},{"id":"8667491","name":"Whale Branch entrance","lat":32.525,"lng":-80.675},{"id":"8667493","name":"Summerhouse Point, Bull River","lat":32.5267,"lng":-80.5733},{"id":"8667508","name":"RR. Bridge, Hall Island","lat":32.5217,"lng":-80.8383},{"id":"8667524","name":"Seabrook","lat":32.5233,"lng":-80.4067},{"id":"8667591","name":"Pilot Island, West Branch Boyds Creek","lat":32.505,"lng":-80.8633},{"id":"8667612","name":"Air Station Beaufort, McCalleys creek","lat":32.5019,"lng":-80.6849},{"id":"8667624","name":"Brickyard Point, Brickyard Creek","lat":32.4933,"lng":-80.685},{"id":"8667630","name":"Edisto Beach, Edisto Island","lat":32.5017,"lng":-80.2967},{"id":"8667633","name":"Corning Landing, Whale Branch","lat":32.5025,"lng":-80.7841},{"id":"8667676","name":"Edisto Marina, Big Bay Creek entrance","lat":32.4933,"lng":-80.34},{"id":"8667679","name":"Carters Dock, Big Bay Creek","lat":32.4933,"lng":-80.3267},{"id":"8667733","name":"Sams Point, Lucy Point Creek","lat":32.4833,"lng":-80.6},{"id":"8667783","name":"Otter Island","lat":32.4767,"lng":-80.42},{"id":"8667864","name":"Marine Corps Air Station, Brickyard Creek","lat":32.465,"lng":-80.6917},{"id":"8667901","name":"Lucy Point Creek entrance","lat":32.4517,"lng":-80.61},{"id":"8667909","name":"Albergottie Creek, Rt. 21 bridge","lat":32.45,"lng":-80.7317},{"id":"8667927","name":"Village Creek Entrance","lat":32.445,"lng":-80.5033},{"id":"8667972","name":"Edding Point, Edding Creek","lat":32.4467,"lng":-80.5333},{"id":"8667982","name":"Jenkins Creek, 1 mi. above entrance","lat":32.44,"lng":-80.5533},{"id":"8667999","name":"Beaufort","lat":32.43,"lng":-80.675},{"id":"8668077","name":"Village Creek Cemetery","lat":32.4167,"lng":-80.52},{"id":"8668091","name":"Jenkins Creek, Polawana Island","lat":32.42,"lng":-80.5767},{"id":"8668092","name":"Battery Creek, 4 mi. above entrance","lat":32.4133,"lng":-80.7},{"id":"8668109","name":"Broughton Point, Hazzard Creek","lat":32.41,"lng":-80.885},{"id":"8668146","name":"Harbor River Bridge","lat":32.4033,"lng":-80.4533},{"id":"8668155","name":"Distant Island Creek, upper end, Cowen Creek","lat":32.4017,"lng":-80.6533},{"id":"8668173","name":"Cowen Creek, Rt. 21 bridge","lat":32.3983,"lng":-80.6167},{"id":"8668223","name":"Hwy. 170 bridge","lat":32.3867,"lng":-80.7767},{"id":"8668227","name":"Johnson Creek Bridge, Hunting Island","lat":32.3917,"lng":-80.4383},{"id":"8668255","name":"Capers Creek, Cowen Creek, St. Helena Island","lat":32.3717,"lng":-80.605},{"id":"8668282","name":"Distant Island, Cowen Creek","lat":32.3783,"lng":-80.6333},{"id":"8668301","name":"Chechessee Bluff, Chechessee River","lat":32.3733,"lng":-80.8367},{"id":"8668445","name":"Parris Island, Marine Corps Recruit Depot","lat":32.35,"lng":-80.6683},{"id":"8668482","name":"Baileys Landing, Okatee River, Colleton River","lat":32.3467,"lng":-80.89},{"id":"8668498","name":"Fripps Inlet, Hunting Island Bridge","lat":32.34,"lng":-80.465},{"id":"8668511","name":"Callawassie Island Bridge, Colleton River","lat":32.3417,"lng":-80.8567},{"id":"8668529","name":"Club Bridge Creek ent., Trenchards Inlet","lat":32.335,"lng":-80.5417},{"id":"8668601","name":"Station Creek, County Landing","lat":32.325,"lng":-80.6017},{"id":"8668619","name":"Colleton River Entrance","lat":32.3217,"lng":-80.7917},{"id":"8668636","name":"Callawassie Creek, Colleton River","lat":32.3167,"lng":-80.8417},{"id":"8668655","name":"Callawassie Island, south, Colleton River","lat":32.3133,"lng":-80.86},{"id":"8668686","name":"Fort Fremont","lat":32.3067,"lng":-80.645},{"id":"8668701","name":"Purrysburg Landing, S.C.","lat":32.3033,"lng":-81.1217},{"id":"8668836","name":"Station Creek, west end","lat":32.28,"lng":-80.6383},{"id":"8668837","name":"Capers Island, Trenchards Inlet","lat":32.2733,"lng":-80.585},{"id":"8668918","name":"Skull Creek, north entrance, Hilton Head Island","lat":32.2667,"lng":-80.7367},{"id":"8668944","name":"Pinckney Island, Mackay Creek, Chechessee River","lat":32.26,"lng":-80.7667},{"id":"8669072","name":"Rt. 170 bridge","lat":32.2367,"lng":-81.0117},{"id":"8669103","name":"Bluffton","lat":32.23,"lng":-80.8617},{"id":"8669133","name":"Skull Creek, south entrance, Hilton Head Island","lat":32.2233,"lng":-80.7717},{"id":"8669167","name":"Port Royal Plantation, Hilton Head Island","lat":32.22,"lng":-80.6683},{"id":"8669246","name":"Brighton Beach. May River","lat":32.2141,"lng":-80.8465},{"id":"8669262","name":"Bull Island North","lat":32.2,"lng":-80.815},{"id":"8669277","name":"Cook Landing Cemetery","lat":32.195,"lng":-81},{"id":"8669323","name":"Savage I., Savage Creek, Bull Creek","lat":32.185,"lng":-80.86},{"id":"8669338","name":"Broad Creek, Hilton Head Island","lat":32.185,"lng":-80.7533},{"id":"8669346","name":"Good Hope Landing, south of","lat":32.1767,"lng":-80.9667},{"id":"8669369","name":"Moreland Cemetery","lat":32.175,"lng":-80.8917},{"id":"8669414","name":"Bull Creek, Bull Island South, Cooper River","lat":32.165,"lng":-80.8567},{"id":"8669415","name":"Little Back River, Hwy. 17, Back River, S.C.","lat":32.165,"lng":-81.13},{"id":"8669464","name":"Calibogue Cay, Broad Creek, Hilton Head Island","lat":32.1533,"lng":-80.795},{"id":"8669493","name":"Haig Point, Daufuskie Island, Cooper River","lat":32.1467,"lng":-80.8367},{"id":"8669531","name":"Doughboy Island","lat":32.1383,"lng":-80.9317},{"id":"8669575","name":"Turnbridge Landing, Salt Water Creek","lat":32.1283,"lng":-81.0117},{"id":"8669601","name":"Pine Island, Ramshorn Creek, Cooper River","lat":32.1217,"lng":-80.8983},{"id":"8669625","name":"Braddock Point, Hilton Head Island","lat":32.1133,"lng":-80.83},{"id":"8669691","name":"Daufuskie Landing, Daufuskie Island","lat":32.1033,"lng":-80.895},{"id":"8669722","name":"Hargray Pier, Daufuskie Island","lat":32.0983,"lng":-80.8983},{"id":"8669801","name":"Bloody Point, Daufuskie Island","lat":32.0817,"lng":-80.8783},{"id":"8669815","name":"Fields Cut, Wright River","lat":32.0867,"lng":-80.9333},{"id":"8670073","name":"S.C.L. RR. bridge","lat":32.2317,"lng":-81.145},{"id":"8670424","name":"Port Wentworth","lat":32.14331,"lng":-81.14169},{"id":"8670678","name":"Fort Jackson","lat":32.0817,"lng":-81.0367},{"id":"8670681","name":"SAVANNAH","lat":32.0817,"lng":-81.0917},{"id":"8670870","name":"Fort Pulaski, Savannah River Entrance","lat":32.03469,"lng":-80.90303},{"id":"8670892","name":"Tybee Light","lat":32.0283,"lng":-80.855},{"id":"8671086","name":"Skidaway Institute, Skidaway River","lat":31.99,"lng":-81.0233},{"id":"8671314","name":"Halfmoon Reef, Halfmoon River","lat":31.9633,"lng":-80.9433},{"id":"8671315","name":"Priest Landing, Wilmington River","lat":31.9633,"lng":-81.0117},{"id":"8671489","name":"Richmond Hill, Ogeechee River","lat":31.943,"lng":-81.2898},{"id":"8671642","name":"Vernon View, Burnside River","lat":31.9267,"lng":-81.0983},{"id":"8671946","name":"Little Wassaw Island, Green Island Sound","lat":31.8897,"lng":-81.0617},{"id":"8672219","name":"Florida Passage, Ogeechee River","lat":31.8533,"lng":-81.1467},{"id":"8672455","name":"Bradley Point, Bradley River","lat":31.8217,"lng":-81.05},{"id":"8672462","name":"Belfast, Belfast River","lat":31.8217,"lng":-81.2983},{"id":"8672667","name":"Bear River, (Range 'A' Light)","lat":31.7933,"lng":-81.1817},{"id":"8672696","name":"Kilkenny Club, Kilkenny Creek","lat":31.7883,"lng":-81.2033},{"id":"8672875","name":"Sunbury, Medway River","lat":31.7667,"lng":-81.2783},{"id":"8673171","name":"Bear River Entrance","lat":31.72303,"lng":-81.1417},{"id":"8673381","name":"Halfmoon, Timmons River","lat":31.695,"lng":-81.2717},{"id":"8673437","name":"Walburg Creek entrance","lat":31.69,"lng":-81.155},{"id":"8673499","name":"North Newport River (Daymark 119)","lat":31.6817,"lng":-81.1917},{"id":"8673812","name":"Thomas Landing, S. Newport River","lat":31.6433,"lng":-81.2567},{"id":"8673875","name":"Eagle Neck, South Newport River","lat":31.65,"lng":-81.305},{"id":"8673962","name":"Harris Neck, Barbour Island River","lat":31.6233,"lng":-81.2633},{"id":"8674251","name":"Barbour Island, Barbour Island River","lat":31.5783,"lng":-81.24},{"id":"8674301","name":"South Newport River (Daymark 135)","lat":31.575,"lng":-81.19},{"id":"8674512","name":"Pine Harbor, Sapelo River","lat":31.5483,"lng":-81.3717},{"id":"8674623","name":"Dog Hammock, Sapelo River","lat":31.5317,"lng":-81.27},{"id":"8674638","name":"Bellville Point, Sapelo River","lat":31.5317,"lng":-81.36},{"id":"8674801","name":"Eagle Creek, Mud River","lat":31.51,"lng":-81.2783},{"id":"8674875","name":"Creighton Narrows Entrance, Crescent River","lat":31.4983,"lng":-81.325},{"id":"8674962","name":"Blackbeard Creek, Blackbeard Island","lat":31.4883,"lng":-81.21},{"id":"8674975","name":"Daymark #156, Head of Mud River","lat":31.4867,"lng":-81.32},{"id":"8675245","name":"Hudson Creek entrance","lat":31.4467,"lng":-81.3433},{"id":"8675365","name":"Old Tea Kettle Creek (Daymark 173)","lat":31.4317,"lng":-81.3067},{"id":"8675622","name":"Old Tower, Sapelo Island","lat":31.39,"lng":-81.2883},{"id":"8675761","name":"Rockdedundy River (Daymark 185)","lat":31.37386,"lng":-81.33394},{"id":"8675779","name":"Darien, Darien River","lat":31.3683,"lng":-81.435},{"id":"8675843","name":"Threemile Cut entrance, Darien River","lat":31.3567,"lng":-81.3767},{"id":"8676012","name":"Champney Island, South Altamaha River","lat":31.3317,"lng":-81.46},{"id":"8676329","name":"Mackay River (ICWW), Buttermilk Sound","lat":31.285,"lng":-81.385},{"id":"8676722","name":"Dillard Creek","lat":31.225,"lng":-81.5717},{"id":"8676743","name":"Frederica River","lat":31.2217,"lng":-81.3933},{"id":"8676766","name":"Mackay River (Daymark 239)","lat":31.21,"lng":-81.425},{"id":"8676787","name":"Buffalo River entrance","lat":31.215,"lng":-81.5833},{"id":"8676808","name":"Crispen Island","lat":31.2133,"lng":-81.55},{"id":"8677045","name":"Frederica River Bridge","lat":31.1683,"lng":-81.4133},{"id":"8677344","name":"St. Simons Light","lat":31.1317,"lng":-81.3967},{"id":"8677406","name":"Howe Street Pier, Brunswick","lat":31.14456,"lng":-81.49681},{"id":"8677566","name":"8 miles above mouth","lat":31.0983,"lng":-81.5733},{"id":"8677576","name":"Jointer Island, Jointer Creek","lat":31.095,"lng":-81.505},{"id":"8677832","name":"Jekyll Island Marina, Jekyll Creek","lat":31.0567,"lng":-81.4233},{"id":"8677833","name":"2.5 miles above mouth","lat":31.0583,"lng":-81.4933},{"id":"8678111","name":"Dover Bluff, Dover Creek","lat":31.0167,"lng":-81.5283},{"id":"8678124","name":"Raccoon Key Spit","lat":31.01481,"lng":-81.45597},{"id":"8678322","name":"Bailey Cut, 0.8 mile west of","lat":30.985,"lng":-81.5917},{"id":"8678412","name":"Todd Creek entrance","lat":30.9717,"lng":-81.52},{"id":"8678466","name":"Ceylon","lat":30.9633,"lng":-81.655},{"id":"8678642","name":"Floyd Creek, 2.8 miles above entrance","lat":30.9367,"lng":-81.5067},{"id":"8678688","name":"Cumberland Wharf, Cumberland River","lat":30.93,"lng":-81.4467},{"id":"8679083","name":"Harrietts Bluff, Crooked River","lat":30.87,"lng":-81.585},{"id":"8679242","name":"Crooked River, Cumberland Dividings","lat":30.8433,"lng":-81.4867},{"id":"8679511","name":"Kings Bay, Navy Base","lat":30.7967,"lng":-81.515},{"id":"8679598","name":"Kings Bay, MSF Pier","lat":30.7781,"lng":-81.4914},{"id":"8679758","name":"Seacamp Dock, Cumberland Island","lat":30.7633,"lng":-81.4717},{"id":"8679945","name":"Beach Creek ent., Cumberland Island","lat":30.7267,"lng":-81.4767},{"id":"8679964","name":"St. Marys","lat":30.72,"lng":-81.5483},{"id":"8679997","name":"St. Marys Entrance, North Jetty","lat":30.72,"lng":-81.445},{"id":"8720001","name":"Kings Ferry","lat":30.7867,"lng":-81.84},{"id":"8720004","name":"Crandall","lat":30.7217,"lng":-81.6217},{"id":"8720006","name":"Little St. Marys River","lat":30.7317,"lng":-81.7267},{"id":"8720007","name":"Roses Bluff, Bells River","lat":30.7033,"lng":-81.5767},{"id":"8720011","name":"CUT 1N FRONT RANGE, ST MARYS RIVER ENTR","lat":30.7083,"lng":-81.465},{"id":"8720023","name":"Chester, Bells River","lat":30.6833,"lng":-81.5333},{"id":"8720030","name":"Fernandina Beach, Amelia River","lat":30.67136,"lng":-81.46584},{"id":"8720051","name":"Lofton, Lanceford Creek","lat":30.6433,"lng":-81.5233},{"id":"8720058","name":"Kingsley Creek, RR. bridge","lat":30.6317,"lng":-81.4767},{"id":"8720059","name":"Vaughns Landing","lat":30.63,"lng":-81.5767},{"id":"8720084","name":"Boggy Creek, 2 mi. above entrance","lat":30.5883,"lng":-81.6633},{"id":"8720086","name":"Amelia City, South Amelia River","lat":30.5867,"lng":-81.4633},